$PMTK001,314,3*36
$PMTK001,220,3*30
$PGACK,33,0*6E
$GPGGA,235948.799,,,,,0,00,,,M,,M,,*7E
$GPGSV,1,1,04,05,,,38,20,,,39,11,,,32,29,,,36*74
$GPGGA,235949.799,,,,,0,00,,,M,,M,,*7F
$GPGSV,1,1,04,05,,,36,20,,,32,11,,,32,29,,,33*74
$GPGGA,235950.800,,,,,0,00,,,M,,M,,*78
$GPGSV,1,1,04,05,,,36,20,,,27,11,,,33,29,,,33*71
$GPGGA,235951.800,,,,,0,00,,,M,,M,,*79
$GPGSV,1,1,04,05,,,28,20,,,29,11,,,34,29,,,34*70
$GPGGA,235952.800,,,,,0,00,,,M,,M,,*7A
$GPGSV,1,1,04,05,,,28,20,,,28,11,,,23,29,,,20*72
$GPGGA,235953.800,,,,,0,00,,,M,,M,,*7B
$GPGSV,1,1,04,05,,,30,20,,,28,11,,,22,29,,,19*70
$GPGGA,235954.800,,,,,0,00,,,M,,M,,*7C
$GPGSV,1,1,04,05,,,30,20,,,27,11,,,23,29,,,20*74
$GPGGA,235955.800,,,,,0,00,,,M,,M,,*7D
$GPGSV,1,1,04,05,,,31,20,,,26,11,,,22,29,,,20*75
$GPGGA,235956.099,,,,,0,00,,,M,,M,,*76
$GPGSV,1,1,04,05,,,32,20,,,26,11,,,22,29,,,19*7C
$GPGGA,235957.099,,,,,0,00,,,M,,M,,*77
$GPGSV,1,1,04,05,,,32,20,,,25,11,,,22,29,,,18*7E
$GPGGA,213544.095,,,,,0,00,,,M,,M,,*71
$GPGSV,1,1,04,05,,,32,20,,,25,11,,,21,29,,,18*7D
$GPGGA,213545.095,,,,,0,00,,,M,,M,,*70
$GPGSV,1,1,04,05,,,32,20,,,25,11,,,21,29,,,17*72
$GPGGA,213546.095,,,,,0,00,,,M,,M,,*73
$GPGSV,1,1,04,05,,,32,20,,,24,11,,,22,29,,,17*70
$GPGGA,213547.095,,,,,0,00,,,M,,M,,*72
$GPGSV,1,1,04,05,,,32,20,,,24,11,,,22,29,,,17*70
$GPGGA,213548.095,,,,,0,00,,,M,,M,,*7D
$GPGSV,1,1,04,05,,,32,20,,,24,11,,,22,29,,,17*70
$GPGGA,213549.095,,,,,0,00,,,M,,M,,*7C
$GPGSV,1,1,04,05,,,32,20,,,24,11,,,22,29,,,17*70
$GPGGA,213550.095,,,,,0,00,,,M,,M,,*74
$GPGSV,1,1,04,05,,,32,20,,,24,11,,,23,29,,,16*70
$GPGGA,213551.095,,,,,0,00,,,M,,M,,*75
$GPGSV,1,1,04,05,,,32,20,,,24,11,,,23,29,,,15*73
$GPGGA,213552.095,,,,,0,00,,,M,,M,,*76
$GPGSV,1,1,04,05,,,32,20,,,24,11,,,23,29,,,15*73
$GPGGA,213553.095,,,,,0,00,,,M,,M,,*77
$GPGSV,1,1,04,05,,,32,20,,,25,11,,,23,29,,,15*72
$GPGGA,213554.089,,,,,0,00,,,M,,M,,*7D
$GPGSV,1,1,04,05,,,32,20,,,25,11,,,24,29,,,15*75
$GPGGA,213554.309,,,,,0,00,,,M,,M,,*76
$GPGSV,1,1,04,05,,,32,20,,,25,11,,,24,29,,,14*74
$GPGGA,213555.309,,,,,0,00,,,M,,M,,*77
$GPGSV,1,1,04,05,,,33,20,,,25,11,,,24,29,,,14*75
$GPGGA,213556.309,,,,,0,00,,,M,,M,,*74
$GPGSV,1,1,04,05,,,33,20,,,25,11,,,24,29,,,14*75
$GPGGA,213557.309,,,,,0,00,,,M,,M,,*75
$GPGSV,1,1,04,05,,,33,20,,,25,11,,,24,29,,,14*75
$GPGGA,213558.309,,,,,0,00,,,M,,M,,*7A
$GPGSV,1,1,04,05,,,33,20,,,25,11,,,24,29,,,14*75
$GPGGA,213559.309,,,,,0,00,,,M,,M,,*7B
$GPGSV,1,1,04,05,,,33,20,,,25,11,,,24,29,,,14*75
$GPGGA,213600.089,,,,,0,00,,,M,,M,,*7F
$GPGSV,1,1,04,05,,,34,20,,,25,11,,,25,29,,,14*73
$GPGGA,213600.309,,,,,0,00,,,M,,M,,*74
$GPGSV,1,1,04,05,,,34,20,,,25,11,,,25,29,,,14*73
$GPGGA,213601.309,,,,,0,00,,,M,,M,,*75
$GPGSV,1,1,04,05,,,33,20,,,25,11,,,25,29,,,15*75
$GPGGA,213602.309,,,,,0,00,,,M,,M,,*76
$GPGSV,1,1,04,05,,,33,20,,,25,11,,,25,29,,,16*76
$GPGGA,213603.309,,,,,0,00,,,M,,M,,*77
$GPGSV,1,1,04,05,,,33,20,,,25,11,,,25,29,,,17*77
$GPGGA,213604.309,,,,,0,00,,,M,,M,,*70
$GPGSV,1,1,04,05,,,33,20,,,25,11,,,25,29,,,17*77
$GPGGA,213605.309,,,,,0,00,,,M,,M,,*71
$GPGSV,1,1,04,29,,,17,05,,,33,20,,,25,11,,,25*77
$GPGGA,213606.089,,,,,0,00,,,M,,M,,*79
$GPGSV,1,1,04,29,,,17,05,,,33,20,,,25,11,,,25*77
$GPGGA,213606.309,,,,,0,00,,,M,,M,,*72
$GPGSV,1,1,04,29,,,17,05,,,33,20,,,25,11,,,25*77
$GPGGA,213607.309,,,,,0,00,,,M,,M,,*73
$GPGSV,2,1,05,29,,,16,05,,,33,20,,,25,12,,,36*75
$GPGSV,2,2,05,11,,,24*7A
$GPGGA,213608.309,,,,,0,00,,,M,,M,,*7C
$GPGSV,2,1,05,29,,,15,05,,,33,20,,,25,12,,,37*77
$GPGSV,2,2,05,11,,,24*7A
$GPGGA,213609.309,,,,,0,00,,,M,,M,,*7D
$GPGSV,2,1,05,29,,,14,05,,,33,20,,,25,12,,,37*76
$GPGSV,2,2,05,11,,,24*7A
$GPGGA,213610.309,,,,,0,00,,,M,,M,,*75
$GPGSV,2,1,05,29,,,14,05,,,33,20,,,25,12,,,34*75
$GPGSV,2,2,05,11,,,25*7B
$GPGGA,213611.309,,,,,0,00,,,M,,M,,*74
$GPGSV,2,1,05,29,,,15,05,,,33,20,,,25,12,,,28*79
$GPGSV,2,2,05,11,,,25*7B
$GPGGA,213612.097,,,,,0,00,,,M,,M,,*73
$GPGSV,2,1,05,29,,,16,05,,,33,20,,,25,12,,,30*73
$GPGSV,2,2,05,11,,,23*7D
$GPGGA,213613.097,,,,,0,00,,,M,,M,,*72
$GPGSV,2,1,05,29,,,16,05,,,33,20,,,25,12,,,32*71
$GPGSV,2,2,05,11,,,22*7C
$GPGGA,213614.097,,,,,0,00,,,M,,M,,*75
$GPGSV,2,1,05,29,,,18,05,,,33,20,,,26,12,,,34*7A
$GPGSV,2,2,05,11,,,23*7D
$GPGGA,213615.097,,,,,0,00,,,M,,M,,*74
$GPGSV,2,1,05,29,,,19,05,,,20,20,,,25,12,,,35*7B
$GPGSV,2,2,05,11,,,23*7D
$GPGGA,213616.097,,,,,0,00,,,M,,M,,*77
$GPGSV,2,1,05,29,,,21,05,,,33,20,,,25,12,,,35*72
$GPGSV,2,2,05,11,,,25*7B
$GPGGA,213617.097,,,,,0,00,,,M,,M,,*76
$GPGSV,2,1,05,29,,,21,05,,,34,20,,,26,12,,,34*77
$GPGSV,2,2,05,11,,,26*78
$GPGGA,213618.097,,,,,0,00,,,M,,M,,*79
$GPGSV,2,1,05,29,,,21,05,,,34,20,,,27,12,,,34*76
$GPGSV,2,2,05,11,,,26*78
$GPGGA,213619.097,,,,,0,00,,,M,,M,,*78
$GPGSV,2,1,05,29,,,21,05,,,34,20,,,27,12,,,33*71
$GPGSV,2,2,05,11,,,26*78
$GPGGA,213620.097,,,,,0,00,,,M,,M,,*72
$GPGSV,2,1,05,29,,,21,05,,,34,20,,,27,12,,,32*70
$GPGSV,2,2,05,11,,,26*78
$GPGGA,213621.097,,,,,0,00,,,M,,M,,*73
$GPGSV,2,1,05,29,,,20,05,,,33,20,,,27,12,,,31*75
$GPGSV,2,2,05,11,,,26*78
$GPGGA,213622.097,,,,,0,00,,,M,,M,,*70
$GPGSV,2,1,05,29,,,19,05,,,32,20,,,27,12,,,30*7F
$GPGSV,2,2,05,11,,,26*78
$GPGGA,213623.097,,,,,0,00,,,M,,M,,*71
$GPGSV,2,1,05,29,,,19,05,,,32,20,,,28,12,,,30*70
$GPGSV,2,2,05,11,,,26*78
$GPGGA,213624.086,,,,,0,00,,,M,,M,,*76
$GPGSV,2,1,05,29,,,18,05,,,32,20,,,28,12,,,30*71
$GPGSV,2,2,05,11,,,26*78
$GPGGA,213624.307,,,,,0,00,,,M,,M,,*7C
$GPGSV,2,1,05,29,,,18,05,,,32,20,,,28,12,,,30*71
$GPGSV,2,2,05,11,,,26*78
$GPGGA,213625.307,,,,,0,00,,,M,,M,,*7D
$GPGSV,2,1,05,29,,,18,05,,,31,20,,,28,12,,,30*72
$GPGSV,2,2,05,11,,,26*78
$GPGGA,213626.307,,,,,0,00,,,M,,M,,*7E
$GPGSV,2,1,05,29,,,18,05,,,31,20,,,28,12,,,30*72
$GPGSV,2,2,05,11,,,26*78
$GPGGA,213627.307,,,,,0,00,,,M,,M,,*7F
$GPGSV,2,1,05,29,,,19,05,,,31,20,,,28,12,,,30*73
$GPGSV,2,2,05,11,,,26*78
$GPGGA,213628.307,,,,,0,00,,,M,,M,,*70
$GPGSV,2,1,05,29,,,18,05,,,31,20,,,28,12,,,30*72
$GPGSV,2,2,05,11,,,25*7B
$GPGGA,213629.307,,,,,0,00,,,M,,M,,*71
$GPGSV,2,1,05,29,,,17,05,,,31,20,,,27,12,,,30*72
$GPGSV,2,2,05,11,,,24*7A
$GPGGA,213630.094,,,,,0,00,,,M,,M,,*70
$GPGSV,2,1,05,29,,,17,05,,,32,20,,,26,12,,,30*70
$GPGSV,2,2,05,11,,,24*7A
$GPGGA,213630.314,,,,,0,00,,,M,,M,,*7B
$GPGSV,2,1,05,29,,,17,05,,,32,20,,,26,12,,,30*70
$GPGSV,2,2,05,11,,,25*7B
$GPGGA,213631.314,,,,,0,00,,,M,,M,,*7A
$GPGSV,2,1,05,29,,,17,05,,,33,20,,,26,12,,,31*70
$GPGSV,2,2,05,11,,,26*78
$GPGGA,213632.314,,,,,0,00,,,M,,M,,*79
$GPGSV,2,1,05,29,,,17,05,,,33,20,,,26,12,,,31*70
$GPGSV,2,2,05,11,,,27*79
$GPGGA,213633.314,,,,,0,00,,,M,,M,,*78
$GPGSV,2,1,05,29,,,17,05,,,33,20,,,26,12,,,31*70
$GPGSV,2,2,05,11,,,27*79
$GPGGA,213634.314,,,,,0,00,,,M,,M,,*7F
$GPGSV,2,1,05,29,,,15,05,,,33,20,,,26,12,,,31*72
$GPGSV,2,2,05,11,,,27*79
$GPGGA,213635.314,,,,,0,00,,,M,,M,,*7E
$GPGSV,2,1,05,29,,,14,05,,,33,20,,,26,12,,,31*73
$GPGSV,2,2,05,11,,,25*7B
$GPGGA,213636.100,,,,,0,00,,,M,,M,,*7A
$GPGSV,2,1,05,29,,,14,05,,,33,20,,,27,12,,,31*72
$GPGSV,2,2,05,11,,,25*7B
$GPGGA,213637.100,,,,,0,00,,,M,,M,,*7B
$GPGSV,2,1,05,29,,,15,05,,,33,20,,,26,12,,,31*72
$GPGSV,2,2,05,11,,,25*7B
$GPGGA,213638.100,,,,,0,00,,,M,,M,,*74
$GPGSV,2,1,05,29,,,14,05,,,33,20,,,26,12,,,31*73
$GPGSV,2,2,05,11,,,25*7B
$GPGGA,213639.100,,,,,0,00,,,M,,M,,*75
$GPGSV,2,1,05,29,,,14,05,,,33,20,,,27,12,,,31*72
$GPGSV,2,2,05,11,,,25*7B
$GPGGA,213640.100,,,,,0,00,,,M,,M,,*7B
$GPGSV,2,1,05,29,,,16,05,,,33,20,,,27,12,,,31*70
$GPGSV,2,2,05,11,,,24*7A
$GPGGA,213641.100,,,,,0,00,,,M,,M,,*7A
$GPGSV,2,1,05,29,,,16,05,,,33,20,,,26,12,,,31*71
$GPGSV,2,2,05,11,,,24*7A
$GPGGA,213642.100,,,,,0,00,,,M,,M,,*79
$GPGSV,2,1,05,29,,,15,05,,,33,20,,,26,12,,,31*72
$GPGSV,2,2,05,11,,,24*7A
$GPGGA,213643.100,,,,,0,00,,,M,,M,,*78
$GPGSV,2,1,05,29,,,15,05,,,34,20,,,27,12,,,31*74
$GPGSV,2,2,05,11,,,24*7A
$GPGGA,213644.100,,,,,0,00,,,M,,M,,*7F
$GPGSV,2,1,05,29,,,15,05,,,34,20,,,27,12,,,31*74
$GPGSV,2,2,05,11,,,24*7A
$GPGGA,213645.100,,,,,0,00,,,M,,M,,*7E
$GPGSV,2,1,05,29,,,15,05,,,34,20,,,27,12,,,31*74
$GPGSV,2,2,05,11,,,24*7A
$GPGGA,213646.100,,,,,0,00,,,M,,M,,*7D
$GPGSV,2,1,05,29,,,14,05,,,34,20,,,27,12,,,30*74
$GPGSV,2,2,05,11,,,24*7A
$GPGGA,213647.100,,,,,0,00,,,M,,M,,*7C
$GPGSV,2,1,05,29,,,14,05,,,34,20,,,27,12,,,30*74
$GPGSV,2,2,05,11,,,24*7A
$GPGGA,213648.087,,,,,0,00,,,M,,M,,*7D
$GPGSV,2,1,05,29,,,15,05,,,34,20,,,28,12,,,29*72
$GPGSV,2,2,05,11,,,25*7B
$GPGGA,213648.316,,,,,0,03,,,M,,M,,*75
$GPGSV,2,1,05,29,,,16,05,,,35,20,,,28,12,,,28*71
$GPGSV,2,2,05,11,,,25*7B
$GPGGA,213649.306,,,,,0,03,,,M,,M,,*75
$GPGSV,2,1,05,29,,,17,05,,,34,20,,,28,12,,,28*71
$GPGSV,2,2,05,11,,,25*7B
$GPGGA,213650.304,,,,,0,03,,,M,,M,,*7F
$GPGSV,2,1,05,29,,,17,05,,,35,20,,,28,12,,,29*71
$GPGSV,2,2,05,11,,,25*7B
$GPGGA,213651.303,,,,,0,03,,,M,,M,,*79
$GPGSV,2,1,05,29,,,17,05,,,36,20,,,29,12,,,29*73
$GPGSV,2,2,05,11,,,26*78
$GPGGA,213652.303,,,,,0,03,,,M,,M,,*7A
$GPGSV,2,1,05,29,,,17,05,,,35,20,,,28,12,,,29*71
$GPGSV,2,2,05,11,,,26*78
$GPGGA,213653.303,,,,,0,03,,,M,,M,,*7B
$GPGSV,2,1,05,29,,,17,05,,,35,20,,,29,12,,,30*78
$GPGSV,2,2,05,11,,,24*7A
$GPGGA,213654.089,,,,,0,03,,,M,,M,,*7D
$GPGSV,2,1,05,29,,,16,05,,,35,20,,,29,12,,,30*79
$GPGSV,2,2,05,11,,,23*7D
$GPGGA,213654.309,,,,,0,03,,,M,,M,,*76
$GPGSV,2,1,05,29,,,15,05,,,35,20,,,29,12,,,30*7A
$GPGSV,2,2,05,11,,,22*7C
$GPGGA,213655.309,,,,,0,03,,,M,,M,,*77
$GPGSV,2,1,05,29,,,14,05,,,35,20,,,29,12,,,30*7B
$GPGSV,2,2,05,11,,,22*7C
$GPGGA,213656.309,,,,,0,03,,,M,,M,,*74
$GPGSV,2,1,05,29,,,14,05,,,35,20,,,29,12,,,30*7B
$GPGSV,2,2,05,11,,,23*7D
$GPGGA,213657.309,,,,,0,03,,,M,,M,,*75
$GPGSV,2,1,05,29,,,14,05,,,35,20,,,29,12,,,30*7B
$GPGSV,2,2,05,11,,,23*7D
$GPGGA,213658.309,,,,,0,03,,,M,,M,,*7A
$GPGSV,2,1,05,29,,,14,05,,,35,20,,,29,12,,,30*7B
$GPGSV,2,2,05,11,,,24*7A
$GPGGA,213659.309,,,,,0,03,,,M,,M,,*7B
$GPGSV,2,1,05,29,,,15,05,,,35,20,,,29,12,,,30*7A
$GPGSV,2,2,05,11,,,26*78
$GPGGA,213700.089,,,,,0,03,,,M,,M,,*7D
$GPGSV,2,1,05,29,,,16,05,,,34,20,,,29,12,,,29*70
$GPGSV,2,2,05,11,,,27*79
$GPGGA,213700.309,,,,,0,03,,,M,,M,,*76
$GPGSV,2,1,05,29,,,17,05,,,34,20,,,29,12,,,29*71
$GPGSV,2,2,05,11,,,28*76
$GPGGA,213701.309,,,,,0,03,,,M,,M,,*77
$GPGSV,2,1,05,29,,,17,05,,,34,20,,,29,12,,,28*70
$GPGSV,2,2,05,11,,,27*79
$GPGGA,213702.309,,,,,0,03,,,M,,M,,*74
$GPGSV,2,1,05,29,,,16,05,,,35,20,,,29,12,,,30*79
$GPGSV,2,2,05,11,,,28*76
$GPGGA,213703.309,,,,,0,03,,,M,,M,,*75
$GPGSV,2,1,05,29,,,16,05,,,35,20,,,29,12,,,31*78
$GPGSV,2,2,05,11,,,28*76
$GPGGA,213704.309,,,,,0,03,,,M,,M,,*72
$GPGSV,2,1,05,29,,,15,05,,,35,20,,,29,12,,,32*78
$GPGSV,2,2,05,11,,,27*79
$GPGGA,213705.309,,,,,0,03,,,M,,M,,*73
$GPGSV,2,1,05,29,,,15,05,,,35,20,,,29,12,,,32*78
$GPGSV,2,2,05,11,,,27*79
$GPGGA,213706.098,,,,,0,03,,,M,,M,,*7B
$GPGSV,2,1,05,29,,,14,05,,,35,20,,,30,12,,,32*71
$GPGSV,2,2,05,11,,,27*79
$GPGGA,213707.098,,,,,0,03,,,M,,M,,*7A
$GPGSV,2,1,05,29,,,15,05,,,35,20,,,30,12,,,32*70
$GPGSV,2,2,05,11,,,27*79
$GPGGA,213708.098,,,,,0,03,,,M,,M,,*75
$GPGSV,2,1,05,29,,,15,05,,,35,20,,,30,12,,,32*70
$GPGSV,2,2,05,11,,,27*79
$GPGGA,213709.098,,,,,0,03,,,M,,M,,*74
$GPGSV,2,1,05,29,,,15,05,,,35,20,,,28,12,,,32*79
$GPGSV,2,2,05,11,,,27*79
$GPGGA,213710.098,,,,,0,03,,,M,,M,,*7C
$GPGSV,2,1,05,29,,,16,05,,,35,20,,,28,12,,,32*7A
$GPGSV,2,2,05,11,,,27*79
$GPGGA,213711.098,,,,,0,03,,,M,,M,,*7D
$GPGSV,2,1,05,29,,,16,05,,,36,20,,,28,12,,,32*79
$GPGSV,2,2,05,11,,,28*76
$GPGGA,213712.084,,,,,0,03,,,M,,M,,*73
$GPGSV,2,1,05,29,,,17,05,,,36,20,,,27,12,,,33*76
$GPGSV,2,2,05,11,,,28*76
$GPGGA,213712.304,,,,,0,03,,,M,,M,,*78
$GPGSV,2,1,05,29,,,18,05,,,36,20,,,26,12,,,33*78
$GPGSV,2,2,05,11,,,28*76
$GPGGA,213713.304,,,,,0,03,,,M,,M,,*79
$GPGSV,2,1,06,29,,,17,05,,,36,20,,,27,12,,,33*75
$GPGSV,2,2,06,11,,,28,13,,,27*72
$GPGGA,213714.304,,,,,0,03,,,M,,M,,*7E
$GPGSV,2,1,06,29,,,16,05,,,36,20,,,27,12,,,33*74
$GPGSV,2,2,06,11,,,28,13,,,28*7D
$GPGGA,213715.304,,,,,0,03,,,M,,M,,*7F
$GPGSV,2,1,06,29,,,16,05,,,35,20,,,27,12,,,32*76
$GPGSV,2,2,06,11,,,27,13,,,30*7B
$GPGGA,213716.304,,,,,0,03,,,M,,M,,*7C
$GPGSV,2,1,06,29,,,16,05,,,35,20,,,27,12,,,32*76
$GPGSV,2,2,06,11,,,27,13,,,30*7B
$GPGGA,213717.304,,,,,0,03,,,M,,M,,*7D
$GPGSV,2,1,06,29,,,16,05,,,35,20,,,27,12,,,32*76
$GPGSV,2,2,06,11,,,27,13,,,28*72
$GPGGA,213718.084,,,,,0,03,,,M,,M,,*79
$GPGSV,2,1,06,29,,,16,05,,,35,20,,,27,12,,,31*75
$GPGSV,2,2,06,11,,,27,13,,,30*7B
$GPGGA,213719.084,,,,,0,03,,,M,,M,,*78
$GPGSV,2,1,06,29,,,15,05,,,35,20,,,27,12,,,31*76
$GPGSV,2,2,06,11,,,27,13,,,30*7B
$GPGGA,213720.084,,,,,0,03,,,M,,M,,*72
$GPGSV,2,1,06,29,,,15,05,,,35,20,,,27,12,,,31*76
$GPGSV,2,2,06,11,,,27,13,,,31*7A
$GPGGA,213721.084,,,,,0,03,,,M,,M,,*73
$GPGSV,2,1,06,29,,,16,05,,,35,20,,,27,12,,,31*75
$GPGSV,2,2,06,11,,,27,13,,,31*7A
$GPGGA,213722.084,,,,,0,03,,,M,,M,,*70
$GPGSV,2,1,06,29,,,18,05,,,35,20,,,28,12,,,31*74
$GPGSV,2,2,06,11,,,27,13,,,30*7B
$GPGGA,213723.084,,,,,0,03,,,M,,M,,*71
$GPGSV,2,1,06,29,,,20,05,,,35,20,,,28,12,,,31*7F
$GPGSV,2,2,06,11,,,28,13,,,30*74
$GPGGA,213724.084,,,,,0,03,,,M,,M,,*76
$GPGSV,2,1,06,29,,,21,05,,,35,20,,,28,12,,,31*7E
$GPGSV,2,2,06,11,,,29,13,,,30*75
$GPGGA,213724.296,,,,,0,04,,,M,,M,,*70
$GPGSV,2,1,06,29,,,22,05,,,35,20,,,28,12,,,31*7D
$GPGSV,2,2,06,11,,,29,13,,,30*75
$GPGGA,213725.296,,,,,0,04,,,M,,M,,*71
$GPGSV,2,1,07,05,78,116,35,20,52,052,28,51,43,183,,11,28,064,29*75
$GPGSV,2,2,07,12,28,188,31,29,,,21,13,,,30*4D
$GPGGA,213727.000,,,,,0,04,,,M,,M,,*7E
$GPGSV,2,1,08,05,78,116,35,20,52,052,28,51,43,183,,11,28,064,28*7B
$GPGSV,2,2,08,12,28,188,32,29,,,19,13,,,30,25,,,25*4A
$GPGGA,213728.000,,,,,0,04,,,M,,M,,*71
$GPGSV,2,1,08,05,78,116,35,20,52,052,27,51,43,183,,11,28,064,27*7B
$GPGSV,2,2,08,12,28,188,32,29,,,18,13,,,30,25,,,26*48
$GPGGA,213729.000,,,,,0,04,,,M,,M,,*70
$GPGSV,2,1,08,05,78,116,35,20,52,052,27,51,43,183,,11,28,064,26*7A
$GPGSV,2,2,08,12,28,188,32,29,,,18,13,,,29,25,,,25*43
$GPGGA,213730.000,,,,,0,04,,,M,,M,,*78
$GPGSV,2,1,08,05,78,116,35,20,52,052,27,51,43,183,,11,28,064,27*7B
$GPGSV,2,2,08,12,28,188,32,29,,,17,13,,,29,25,,,25*4C
$GPGGA,213731.000,,,,,0,04,,,M,,M,,*79
$GPGSV,2,1,08,05,78,116,35,20,52,052,26,51,43,183,,11,28,064,28*75
$GPGSV,2,2,08,12,28,188,32,29,,,17,13,,,28,25,,,26*4E
$GPGGA,213732.000,,,,,0,04,,,M,,M,,*7A
$GPGSV,2,1,08,05,78,116,35,20,52,052,26,51,43,183,,11,28,064,29*74
$GPGSV,2,2,08,12,28,188,33,29,,,17,13,,,28,25,,,26*4F
$GPGGA,213733.000,,,,,0,04,,,M,,M,,*7B
$GPGSV,2,1,08,05,78,116,36,20,52,052,26,51,43,183,,11,28,064,29*77
$GPGSV,2,2,08,12,28,188,33,29,,,18,13,,,27,25,,,26*4F
$GPGGA,213734.000,,,,,0,04,,,M,,M,,*7C
$GPGSV,2,1,08,05,78,116,36,20,52,052,26,51,43,183,,11,28,064,29*77
$GPGSV,2,2,08,12,28,188,33,29,,,25,13,,,27,25,,,24*43
$GPGGA,213735.000,,,,,0,04,,,M,,M,,*7D
$GPGSV,2,1,08,05,78,116,36,20,52,052,25,48,35,219,,11,28,064,29*7D
$GPGSV,2,2,08,12,28,188,33,29,,,25,13,,,28,25,,,23*4B
$GPGGA,213736.000,,,,,0,04,,,M,,M,,*7E
$GPGSV,2,1,08,05,78,116,37,20,52,052,25,48,35,219,,11,28,064,29*7C
$GPGSV,2,2,08,12,28,188,33,29,,,26,13,,,29,25,,,23*49
$GPGGA,213737.000,,,,,0,04,,,M,,M,,*7F
$GPGSV,2,1,08,05,78,116,37,20,52,052,25,48,35,219,32,11,28,064,29*7D
$GPGSV,2,2,08,12,28,188,33,29,,,26,13,,,30,25,,,23*41
$GPGGA,213738.000,,,,,0,04,,,M,,M,,*70
$GPGSV,2,1,08,05,78,116,37,20,52,052,25,48,35,219,33,11,28,064,29*7C
$GPGSV,2,2,08,12,28,188,32,29,,,26,13,,,30,25,,,23*40
$GPGGA,213739.000,,,,,0,04,,,M,,M,,*71
$GPGSV,2,1,08,05,78,116,37,20,52,052,25,48,35,219,35,11,28,064,29*7A
$GPGSV,2,2,08,12,28,188,32,29,,,26,13,,,31,25,,,23*41
$GPGGA,213740.000,,,,,0,04,,,M,,M,,*7F
$GPGSV,2,1,08,05,78,116,36,20,52,052,25,48,35,219,33,11,28,064,29*7D
$GPGSV,2,2,08,12,28,188,31,29,,,26,13,,,30,25,,,22*42
$GPGGA,213741.000,,,,,0,04,,,M,,M,,*7E
$GPGSV,2,1,08,05,78,116,36,20,52,052,24,48,35,219,33,11,28,064,29*7C
$GPGSV,2,2,08,12,28,188,31,29,,,26,13,,,30,25,,,22*42
$GPGGA,213742.000,,,,,0,04,,,M,,M,,*7D
$GPGSV,2,1,08,05,78,116,36,20,52,052,24,48,35,219,33,11,28,064,29*7C
$GPGSV,2,2,08,12,28,188,31,29,,,26,13,,,30,25,,,22*42
$GPGGA,213743.000,,,,,0,04,,,M,,M,,*7C
$GPGSV,2,1,08,05,78,116,36,20,52,052,24,48,35,219,33,11,28,064,28*7D
$GPGSV,2,2,08,12,28,188,31,29,,,26,13,,,29,25,,,22*4A
$GPGGA,213744.000,,,,,0,04,,,M,,M,,*7B
$GPGSV,2,1,08,05,78,116,36,20,52,052,25,48,35,219,33,11,28,064,28*7C
$GPGSV,2,2,08,12,28,188,31,29,,,26,13,,,29,25,,,21*49
$GPGGA,213745.000,,,,,0,04,,,M,,M,,*7A
$GPGSV,2,1,08,05,78,116,36,20,52,052,25,48,35,219,33,11,28,064,28*7C
$GPGSV,2,2,08,12,28,188,31,29,,,26,13,,,29,25,,,21*49
$GPGGA,213746.000,,,,,0,04,,,M,,M,,*79
$GPGSV,2,1,08,05,78,116,36,20,51,052,26,48,35,219,34,11,28,064,28*7B
$GPGSV,2,2,08,12,28,188,33,29,,,25,13,,,29,25,,,23*4A
$GPGGA,213747.000,,,,,0,04,,,M,,M,,*78
$GPGSV,2,1,08,05,78,116,36,20,51,052,25,48,35,219,35,11,28,064,28*79
$GPGSV,2,2,08,12,28,188,34,29,,,24,13,,,28,25,,,25*4B
$GPGGA,213748.000,,,,,0,04,,,M,,M,,*77
$GPGSV,2,1,08,05,78,116,36,20,51,052,25,48,35,219,35,11,28,064,28*79
$GPGSV,2,2,08,12,28,188,35,29,,,23,13,,,28,25,,,25*4D
$GPGGA,213749.000,4000.6520,N,10514.4697,W,1,05,1.97,1620.0,M,-20.6,M,,*6A
$GPGSV,2,1,08,05,78,116,37,20,51,052,26,48,35,219,35,11,28,064,29*7A
$GPGSV,2,2,08,12,28,188,36,13,12,129,27,29,,,22,25,,,25*79
$GPGGA,213750.000,4000.6527,N,10514.4716,W,1,05,1.97,1619.0,M,-20.6,M,,*67
$GPGSV,2,1,08,05,78,116,37,20,51,052,26,48,35,219,35,11,28,064,30*72
$GPGSV,2,2,08,12,28,188,36,13,12,129,26,29,,,21,25,,,25*7B
$GPGGA,213751.000,4000.6552,N,10514.4766,W,1,05,1.97,1616.2,M,-20.6,M,,*6E
$GPGSV,2,1,08,05,78,116,37,20,51,052,26,48,35,219,35,11,28,064,30*72
$GPGSV,2,2,08,12,28,188,37,13,12,129,26,29,,,21,25,,,25*7A
$GPGGA,213752.000,4000.6552,N,10514.4767,W,1,05,1.97,1616.5,M,-20.6,M,,*6B
$GPGSV,2,1,08,05,78,116,37,20,51,052,27,48,35,219,35,11,28,064,29*7B
$GPGSV,2,2,08,12,28,188,37,13,12,129,25,29,,,20,25,,,25*78
$GPGGA,213753.000,4000.6554,N,10514.4769,W,1,05,1.97,1617.0,M,-20.6,M,,*66
$GPGSV,2,1,08,05,78,116,37,20,51,052,27,48,35,219,36,11,28,064,28*79
$GPGSV,2,2,08,12,28,188,36,13,12,129,18,29,,,19,25,,,26*7E
$GPGGA,213754.000,4000.6556,N,10514.4773,W,1,05,1.97,1617.4,M,-20.6,M,,*6C
$GPGSV,2,1,08,05,78,116,37,20,51,052,26,48,35,219,37,11,28,064,27*76
$GPGSV,2,2,08,12,28,188,36,13,12,129,25,29,,,18,25,,,27*70
$GPGGA,213755.000,4000.6562,N,10514.4785,W,1,05,1.97,1617.4,M,-20.6,M,,*63
$GPGSV,2,1,08,05,78,116,37,20,51,052,26,48,35,219,36,11,28,064,27*77
$GPGSV,2,2,08,12,28,188,37,13,12,129,26,29,,,18,25,,,26*73
$GPGGA,213756.000,4000.6563,N,10514.4788,W,1,05,1.97,1618.2,M,-20.6,M,,*65
$GPGSV,2,1,08,05,78,116,37,20,51,052,26,48,35,219,36,11,28,064,27*77
$GPGSV,2,2,08,12,28,188,39,13,12,129,26,29,,,18,25,,,27*7C
$GPGGA,213757.000,4000.6573,N,10514.4810,W,1,05,1.97,1617.7,M,-20.6,M,,*61
$GPGSV,2,1,08,05,78,116,37,20,51,052,26,48,35,219,36,11,28,064,26*76
$GPGSV,2,2,08,12,28,188,39,13,12,129,26,29,,,18,25,,,29*72
$GPGGA,213758.000,4000.6573,N,10514.4810,W,1,05,1.97,1618.7,M,-20.6,M,,*61
$GPGSV,2,1,08,05,78,116,37,20,51,052,26,48,35,219,36,11,28,064,26*76
$GPGSV,2,2,08,12,28,188,38,13,12,129,24,29,,,18,25,,,28*70
$GPGGA,213759.000,4000.6572,N,10514.4806,W,1,05,1.97,1619.9,M,-20.6,M,,*69
$GPGSV,2,1,08,05,78,116,37,20,51,052,26,48,35,219,35,11,28,064,28*7B
$GPGSV,2,2,08,12,28,188,36,13,12,129,23,29,,,18,25,,,18*7A
$GPGGA,213800.000,4000.6567,N,10514.4795,W,1,05,3.43,1621.5,M,-20.6,M,,*67
$GPGSV,2,1,08,05,78,116,38,20,51,052,24,48,35,219,34,11,28,064,27*78
$GPGSV,2,2,08,12,28,188,37,13,12,129,23,29,,,19,25,,,19*7B
$GPGGA,213801.000,4000.6566,N,10514.4794,W,1,05,3.43,1622.7,M,-20.6,M,,*67
$GPGSV,2,1,08,05,78,116,38,20,51,052,24,48,35,219,34,11,28,064,28*77
$GPGSV,2,2,08,12,28,188,37,13,12,129,23,29,,,20,25,,,19*71
$GPGGA,213802.000,4000.6566,N,10514.4795,W,1,05,3.42,1623.6,M,-20.6,M,,*64
$GPGSV,2,1,08,05,78,116,38,20,51,052,24,48,35,219,33,11,28,064,27*7F
$GPGSV,2,2,08,12,28,188,37,13,12,129,24,29,,,20,25,,,26*7A
$GPGGA,213803.000,4000.6570,N,10514.4803,W,1,05,1.97,1624.2,M,-20.6,M,,*6B
$GPGSV,2,1,08,05,78,116,38,20,51,052,25,48,35,219,33,11,28,064,28*71
$GPGSV,2,2,08,12,28,188,37,13,12,129,25,29,,,21,25,,,26*7A
$GPGGA,213804.000,4000.6570,N,10514.4803,W,1,05,1.97,1624.7,M,-20.6,M,,*69
$GPGSV,2,1,08,05,78,116,37,20,51,052,27,48,35,219,34,11,28,064,27*74
$GPGSV,2,2,08,12,28,188,36,13,12,129,24,29,,,22,25,,,28*77
$GPGGA,213805.000,4000.6566,N,10514.4796,W,1,05,1.97,1625.4,M,-20.6,M,,*6E
$GPGSV,2,1,08,05,78,116,37,20,51,052,27,48,35,219,35,11,28,064,20*72
$GPGSV,2,2,08,12,28,188,36,13,12,129,25,29,,,21,25,,,27*7A
$GPGGA,213806.000,4000.6563,N,10514.4792,W,1,05,1.97,1625.9,M,-20.6,M,,*61
$GPGSV,2,1,08,05,78,116,37,20,51,052,27,48,35,219,36,11,28,064,21*70
$GPGSV,2,2,08,12,28,188,36,13,12,129,25,29,,,21,25,,,26*7B
$GPGGA,213807.000,4000.6563,N,10514.4794,W,1,05,1.97,1626.3,M,-20.6,M,,*6F
$GPGSV,2,1,08,05,78,116,36,20,51,052,27,25,42,221,37,48,35,219,37*7F
$GPGSV,2,2,08,11,28,064,23,12,28,188,36,13,12,129,23,29,,,21*47
$GPGGA,213808.000,4000.6563,N,10514.4796,W,1,05,1.97,1626.6,M,-20.6,M,,*67
$GPGSV,2,1,08,05,78,114,36,20,51,052,27,25,42,221,37,48,35,219,38*72
$GPGSV,2,2,08,11,28,064,30,12,28,188,36,13,12,129,24,29,,,20*43
$GPGGA,213809.000,4000.6582,N,10514.4835,W,1,05,1.97,1624.9,M,-20.6,M,,*62
$GPGSV,2,1,08,05,78,114,36,20,51,052,27,25,42,221,37,48,35,219,38*72
$GPGSV,2,2,08,11,28,064,28,12,28,188,37,13,12,129,25,29,,,20*4A
$GPGGA,213810.000,4000.6589,N,10514.4851,W,1,05,1.97,1624.2,M,-20.6,M,,*68
$GPGSV,2,1,08,05,78,114,36,20,51,052,27,25,42,221,37,48,35,219,39*73
$GPGSV,2,2,08,11,28,064,27,12,28,188,37,13,12,129,26,29,,,21*47
$GPGGA,213811.000,4000.6597,N,10514.4869,W,1,05,1.97,1623.5,M,-20.6,M,,*6D
$GPGSV,2,1,08,05,78,114,36,20,51,052,28,25,42,221,37,48,35,219,39*7C
$GPGSV,2,2,08,11,28,064,27,12,28,188,37,13,12,129,27,29,,,22*45
$GPGGA,213812.000,4000.6601,N,10514.4875,W,1,05,1.97,1623.7,M,-20.6,M,,*6D
$GPGSV,2,1,08,05,78,114,36,20,51,052,28,25,42,221,37,48,39,209,40*7F
$GPGSV,2,2,08,11,28,064,26,12,28,188,38,13,12,129,28,29,,,21*47
$GPGGA,213813.000,4000.6602,N,10514.4877,W,1,05,1.97,1624.0,M,-20.6,M,,*6D
$GPGSV,2,1,08,05,78,114,36,20,51,052,29,25,42,221,37,48,39,209,40*7E
$GPGSV,2,2,08,11,28,064,26,12,28,188,39,13,12,129,29,29,,,21*47
$GPGGA,213814.000,4000.6602,N,10514.4878,W,1,05,1.97,1624.1,M,-20.6,M,,*64
$GPGSV,2,1,08,05,78,114,35,20,51,052,29,25,42,221,37,48,39,209,40*7D
$GPGSV,2,2,08,11,28,064,26,12,28,188,39,13,12,129,29,29,,,21*47
$GPGGA,213815.000,4000.6602,N,10514.4878,W,1,05,1.97,1624.5,M,-20.6,M,,*61
$GPGSV,2,1,08,05,78,114,35,20,51,052,29,25,42,221,37,48,39,209,40*7D
$GPGSV,2,2,08,11,28,064,25,12,28,188,38,13,12,129,28,29,,,20*45
$GPGGA,213816.000,4000.6601,N,10514.4879,W,1,05,1.97,1625.0,M,-20.6,M,,*64
$GPGSV,2,1,08,05,78,114,35,20,51,052,30,25,42,221,37,48,39,209,40*75
$GPGSV,2,2,08,11,28,064,26,12,28,188,38,13,12,129,29,29,,,19*4D
$GPGGA,213817.000,4000.6599,N,10514.4877,W,1,05,1.97,1625.5,M,-20.6,M,,*6C
$GPGSV,2,1,08,05,78,114,35,20,51,052,30,25,42,221,37,48,39,209,40*75
$GPGSV,2,2,08,11,28,064,26,12,28,188,37,13,12,129,28,29,,,18*42
$GPGGA,213818.000,4000.6599,N,10514.4877,W,1,05,1.97,1626.0,M,-20.6,M,,*65
$GPGSV,2,1,08,05,78,114,35,20,51,052,30,25,42,221,37,48,39,209,40*75
$GPGSV,2,2,08,11,28,064,26,12,28,188,37,13,12,129,29,29,,,18*43
$GPGGA,213819.000,4000.6597,N,10514.4876,W,1,05,1.97,1626.4,M,-20.6,M,,*6F
$GPGSV,2,1,08,05,78,114,35,20,51,052,30,25,42,221,37,48,39,209,40*75
$GPGSV,2,2,08,11,28,064,26,12,28,188,37,13,12,129,29,29,,,19*42
$GPGGA,213820.000,4000.6597,N,10514.4877,W,1,05,1.97,1626.6,M,-20.6,M,,*66
$GPGSV,2,1,08,05,78,114,36,20,51,052,29,25,42,221,37,48,39,209,40*7E
$GPGSV,2,2,08,11,28,064,26,12,28,188,37,13,12,129,29,29,,,19*42
$GPGGA,213821.000,4000.6599,N,10514.4883,W,1,05,1.97,1626.8,M,-20.6,M,,*6C
$GPGSV,2,1,08,05,78,114,36,20,51,052,29,25,42,221,38,48,39,209,40*71
$GPGSV,2,2,08,11,28,064,26,12,28,188,37,13,12,129,30,29,,,20*40
$GPGGA,213822.000,4000.6600,N,10514.4885,W,1,05,1.97,1626.9,M,-20.6,M,,*6B
$GPGSV,2,1,08,05,78,114,35,20,51,052,29,25,42,221,37,48,39,209,40*7D
$GPGSV,2,2,08,11,28,064,27,12,28,188,36,13,12,129,31,29,,,19*4B
$GPGGA,213823.000,4000.6600,N,10514.4884,W,1,05,1.97,1627.4,M,-20.6,M,,*67
$GPGSV,2,1,08,05,78,114,35,20,51,052,29,25,42,221,36,48,39,209,40*7C
$GPGSV,2,2,08,11,28,064,27,12,28,188,37,13,12,129,30,29,,,19*4B
$GPGGA,213824.000,4000.6601,N,10514.4885,W,1,05,1.97,1627.7,M,-20.6,M,,*63
$GPGSV,2,1,08,05,78,114,35,20,51,052,29,25,42,221,36,48,39,209,40*7C
$GPGSV,2,2,08,11,28,064,27,12,28,188,36,13,12,129,30,29,,,20*40
$GPGGA,213825.000,4000.6599,N,10514.4885,W,1,05,1.97,1628.2,M,-20.6,M,,*6A
$GPGSV,2,1,08,05,78,114,35,20,51,052,29,25,42,221,36,48,39,209,40*7C
$GPGSV,2,2,08,11,28,064,27,12,28,188,36,13,12,129,30,29,,,21*41
$GPGGA,213826.000,4000.6600,N,10514.4884,W,1,05,1.97,1628.4,M,-20.6,M,,*6D
$GPGSV,2,1,08,05,78,114,35,20,51,052,29,25,42,221,36,48,39,209,40*7C
$GPGSV,2,2,08,11,28,064,27,12,28,188,35,13,12,129,30,29,,,21*42
$GPGGA,213827.000,4000.6600,N,10514.4882,W,1,05,1.97,1628.6,M,-20.6,M,,*68
$GPGSV,2,1,08,05,78,114,35,20,51,052,29,25,42,221,36,48,39,209,40*7C
$GPGSV,2,2,08,11,28,064,27,12,28,188,35,13,12,129,30,29,,,22*41
$GPGGA,213828.000,4000.6601,N,10514.4881,W,1,05,1.97,1628.7,M,-20.6,M,,*64
$GPGSV,2,1,08,05,78,114,35,20,51,052,30,25,42,221,37,48,39,209,40*75
$GPGSV,2,2,08,11,28,064,28,12,28,188,35,13,12,129,29,29,,,23*47
$GPGGA,213829.000,4000.6602,N,10514.4882,W,1,05,3.41,1628.7,M,-20.6,M,,*6C
$GPGSV,2,1,08,05,78,114,35,20,51,052,30,25,42,221,37,48,39,209,40*75
$GPGSV,2,2,08,11,28,064,29,12,28,188,35,13,12,129,28,29,,,23*47
$GPGGA,213830.000,4000.6602,N,10514.4881,W,1,05,1.97,1629.1,M,-20.6,M,,*69
$GPGSV,2,1,08,05,78,114,35,20,51,052,30,25,42,221,37,48,39,209,40*75
$GPGSV,2,2,08,11,28,064,30,12,28,188,35,13,12,129,28,29,,,23*4F
$GPGGA,213831.000,4000.6597,N,10514.4868,W,1,06,1.57,1630.3,M,-20.6,M,,*65
$GPGSV,2,1,08,05,78,114,35,20,51,052,29,25,42,221,37,48,39,209,40*7D
$GPGSV,2,2,08,11,28,064,30,12,28,188,35,13,12,129,28,29,,,24*48
$GPGGA,213832.000,4000.6592,N,10514.4858,W,1,06,1.57,1631.3,M,-20.6,M,,*61
$GPGSV,2,1,08,05,78,114,35,20,51,052,29,25,42,221,37,48,39,209,40*7D
$GPGSV,2,2,08,11,28,064,30,12,28,188,35,13,12,129,28,29,,,24*48
$GPGGA,213833.000,4000.6588,N,10514.4851,W,1,06,1.57,1632.2,M,-20.6,M,,*60
$GPGSV,2,1,08,05,78,114,35,20,51,052,28,25,42,221,37,48,39,209,40*7C
$GPGSV,2,2,08,11,28,064,30,12,28,188,35,13,12,129,28,29,,,24*48
$GPGGA,213834.000,4000.6585,N,10514.4847,W,2,06,1.57,1632.8,M,-20.6,M,0000,0000*64
$GPGSV,2,1,08,05,78,114,35,20,51,052,29,25,42,221,37,48,39,209,40*7D
$GPGSV,2,2,08,11,28,064,30,12,28,188,34,13,12,129,28,29,,,24*49
$GPGGA,213835.000,4000.6582,N,10514.4844,W,2,06,1.57,1633.1,M,-20.6,M,0000,0000*69
$GPGSV,2,1,08,05,78,114,35,20,51,052,29,25,42,221,36,48,39,209,41*7D
$GPGSV,2,2,08,11,28,064,29,12,28,188,34,13,12,129,29,29,,,23*47
$GPGGA,213836.000,4000.6578,N,10514.4839,W,2,06,1.57,1633.5,M,-20.6,M,0000,0000*61
$GPGSV,2,1,08,05,78,114,36,20,51,052,29,25,42,221,37,48,39,209,41*7F
$GPGSV,2,2,08,11,28,064,28,12,28,188,34,13,12,129,29,29,,,24*41
$GPGGA,213837.000,4000.6575,N,10514.4835,W,2,06,1.57,1633.9,M,-20.6,M,0000,0000*6D
$GPGSV,3,1,09,05,78,114,36,20,51,052,29,25,42,221,37,48,39,209,40*7E
$GPGSV,3,2,09,11,28,064,28,12,28,188,34,13,12,129,29,26,08,323,*72
$GPGSV,3,3,09,29,,,25*7C
$GPGGA,213838.000,4000.6574,N,10514.4834,W,2,06,1.57,1634.1,M,-20.6,M,0000,0000*6D
$GPGSV,3,1,09,05,78,114,36,20,51,052,28,25,42,221,37,48,39,209,40*7F
$GPGSV,3,2,09,11,28,064,28,12,28,188,35,13,12,129,30,26,08,323,*7B
$GPGSV,3,3,09,29,,,25*7C
$GPGGA,213839.000,4000.6573,N,10514.4833,W,2,06,1.57,1634.2,M,-20.6,M,0000,0000*6F
$GPGSV,3,1,09,05,78,114,36,20,51,052,28,25,42,221,37,48,39,209,40*7F
$GPGSV,3,2,09,11,28,064,28,12,28,188,36,13,12,129,30,26,08,323,*78
$GPGSV,3,3,09,29,,,24*7D
$GPGGA,213840.000,4000.6572,N,10514.4830,W,2,06,1.57,1634.2,M,-20.6,M,0000,0000*63
$GPGSV,3,1,09,05,78,114,36,20,51,052,29,25,42,221,37,48,39,209,40*7E
$GPGSV,3,2,09,11,28,064,29,12,28,188,36,13,12,129,30,26,08,323,*79
$GPGSV,3,3,09,29,,,22*7B
$GPGGA,213841.000,4000.6572,N,10514.4830,W,2,06,1.57,1634.3,M,-20.6,M,0000,0000*63
$GPGSV,3,1,09,05,78,114,36,20,51,052,29,25,42,221,37,48,39,209,41*7F
$GPGSV,3,2,09,11,28,064,29,12,28,188,36,13,12,129,31,26,08,323,*78
$GPGSV,3,3,09,29,,,22*7B
$GPGGA,213842.000,4000.6571,N,10514.4829,W,2,06,1.57,1634.3,M,-20.6,M,0000,0000*6B
$GPGSV,3,1,09,05,78,114,36,20,51,052,29,25,42,221,37,48,39,209,41*7F
$GPGSV,3,2,09,11,28,064,29,12,28,188,36,13,12,129,31,26,08,323,*78
$GPGSV,3,3,09,29,,,23*7A
$GPGGA,213843.000,4000.6570,N,10514.4828,W,2,06,1.57,1634.4,M,-20.6,M,0000,0000*6D
$GPGSV,3,1,09,05,78,114,36,20,51,052,29,25,42,221,37,48,39,209,41*7F
$GPGSV,3,2,09,11,28,064,29,12,28,188,37,13,12,129,31,26,08,323,*79
$GPGSV,3,3,09,29,,,24*7D
$GPGGA,213844.000,4000.6570,N,10514.4829,W,2,06,1.57,1634.3,M,-20.6,M,0000,0000*6C
$GPGSV,3,1,09,05,78,114,36,20,51,052,29,25,42,221,37,48,39,209,41*7F
$GPGSV,3,2,09,11,28,064,29,12,28,188,37,13,12,129,31,26,08,323,*79
$GPGSV,3,3,09,29,,,24*7D
$GPGGA,213845.000,4000.6569,N,10514.4828,W,2,06,1.57,1634.0,M,-20.6,M,0000,0000*67
$GPGSV,3,1,09,05,78,114,36,20,51,052,30,25,42,221,36,48,39,209,40*77
$GPGSV,3,2,09,11,28,064,28,12,28,188,37,13,12,129,31,26,08,323,*78
$GPGSV,3,3,09,29,,,23*7A
$GPGGA,213846.000,4000.6567,N,10514.4826,W,2,06,1.57,1633.7,M,-20.6,M,0000,0000*64
$GPGSV,3,1,09,05,78,113,36,20,51,052,29,25,42,221,37,48,39,209,40*79
$GPGSV,3,2,09,11,28,064,29,12,28,188,37,13,12,129,29,26,08,323,*70
$GPGSV,3,3,09,29,,,21*78
$GPGGA,213847.000,4000.6566,N,10514.4825,W,2,06,1.57,1633.3,M,-20.6,M,0000,0000*63
$GPGSV,3,1,09,05,78,113,36,20,51,052,29,25,42,221,37,48,39,209,40*79
$GPGSV,3,2,09,11,28,064,29,12,28,188,37,13,12,129,29,26,08,323,*70
$GPGSV,3,3,09,29,,,14*7E
$GPGGA,213848.000,4000.6566,N,10514.4826,W,2,06,1.57,1633.0,M,-20.6,M,0000,0000*6C
$GPGSV,3,1,09,05,78,113,36,20,51,052,29,25,42,221,38,48,39,209,40*76
$GPGSV,3,2,09,11,28,064,30,12,28,188,37,13,12,129,29,26,08,323,*78
$GPGSV,3,3,09,29,,,15*7F
$GPGGA,213849.000,4000.6566,N,10514.4827,W,2,06,1.57,1632.6,M,-20.6,M,0000,0000*6B
$GPGSV,3,1,09,05,78,113,36,20,51,052,28,25,42,221,38,48,39,209,40*77
$GPGSV,3,2,09,11,28,064,31,12,28,188,37,13,12,129,29,26,08,323,*79
$GPGSV,3,3,09,29,,,14*7E
$GPGGA,213850.000,4000.6564,N,10514.4826,W,2,06,1.57,1632.5,M,-20.6,M,0000,0000*63
$GPGSV,3,1,09,05,78,113,36,20,51,052,29,25,42,221,38,48,39,209,40*76
$GPGSV,3,2,09,11,28,064,30,12,28,188,37,13,12,129,28,26,08,323,*79
$GPGSV,3,3,09,29,,,15*7F
$GPGGA,213851.000,4000.6564,N,10514.4826,W,2,06,2.34,1632.4,M,-20.6,M,0000,0000*65
$GPGSV,3,1,09,05,78,113,37,20,51,052,29,25,42,221,38,48,39,209,40*77
$GPGSV,3,2,09,11,28,064,29,12,28,188,36,13,12,129,29,26,08,323,*71
$GPGSV,3,3,09,29,,,16*7C
$GPGGA,213852.000,4000.6563,N,10514.4826,W,2,06,1.57,1632.4,M,-20.6,M,0000,0000*67
$GPGSV,3,1,09,05,78,113,37,20,51,052,30,25,42,221,38,48,39,209,40*7F
$GPGSV,3,2,09,11,28,064,29,12,28,188,36,13,12,129,29,26,08,323,*71
$GPGSV,3,3,09,29,,,23*7A
$GPGGA,213853.000,4000.6560,N,10514.4825,W,2,06,1.57,1632.5,M,-20.6,M,0000,0000*67
$GPGSV,3,1,09,05,78,113,37,20,51,052,30,25,42,221,37,48,39,209,39*7E
$GPGSV,3,2,09,11,28,064,29,12,28,188,36,13,12,129,28,26,08,323,*70
$GPGSV,3,3,09,29,,,24*7D
$GPGGA,213854.000,4000.6559,N,10514.4824,W,2,06,1.57,1632.5,M,-20.6,M,0000,0000*6B
$GPGSV,3,1,09,05,78,113,37,20,51,052,29,25,42,221,36,48,39,209,38*76
$GPGSV,3,2,09,11,28,064,28,12,28,188,36,13,12,128,28,26,08,323,*70
$GPGSV,3,3,09,29,,,24*7D
$GPGGA,213855.000,4000.6559,N,10514.4825,W,2,06,1.57,1632.6,M,-20.6,M,0000,0000*68
$GPGSV,3,1,09,05,78,113,37,20,51,052,28,25,42,221,35,48,39,209,37*7B
$GPGSV,3,2,09,11,28,064,27,12,28,188,35,13,12,128,28,26,08,323,*7C
$GPGSV,3,3,09,29,,,23*7A
$GPGGA,213856.000,4000.6560,N,10514.4827,W,2,06,1.57,1632.6,M,-20.6,M,0000,0000*63
$GPGSV,3,1,09,05,78,113,37,20,51,052,27,25,42,221,35,48,39,209,38*7B
$GPGSV,3,2,09,11,28,064,26,12,28,188,35,13,12,128,29,26,08,323,*7C
$GPGSV,3,3,09,29,,,22*7B
$GPGGA,213857.000,4000.6560,N,10514.4827,W,2,06,1.57,1632.7,M,-20.6,M,0000,0000*63
$GPGSV,3,1,09,05,78,113,37,20,51,052,26,25,42,221,34,48,39,209,38*7B
$GPGSV,3,2,09,11,28,064,25,12,28,188,28,13,12,128,28,26,08,323,*72
$GPGSV,3,3,09,29,,,21*78
$GPGGA,213858.000,4000.6559,N,10514.4828,W,2,06,1.57,1632.7,M,-20.6,M,0000,0000*69
$GPGSV,3,1,09,05,78,113,37,20,51,052,25,25,42,221,34,48,39,209,39*79
$GPGSV,3,2,09,11,28,064,25,12,28,188,29,13,12,128,28,26,08,323,*73
$GPGSV,3,3,09,29,,,20*79
$GPGGA,213859.000,4000.6559,N,10514.4829,W,2,06,1.57,1632.6,M,-20.6,M,0000,0000*68
$GPGSV,3,1,09,05,78,113,37,20,51,052,25,25,42,221,33,48,39,209,39*7E
$GPGSV,3,2,09,11,28,064,24,12,28,188,29,13,12,128,28,26,08,323,*72
$GPGSV,3,3,09,29,,,19*73
$GPGGA,213900.000,4000.6559,N,10514.4828,W,2,06,1.57,1632.4,M,-20.6,M,0000,0000*66
$GPGSV,3,1,09,05,78,113,37,20,51,052,26,25,42,221,33,48,39,209,40*73
$GPGSV,3,2,09,11,28,064,24,12,28,188,30,13,12,128,28,26,08,323,*7A
$GPGSV,3,3,09,29,,,18*72
$GPGGA,213901.000,4000.6558,N,10514.4828,W,2,06,1.57,1632.2,M,-20.6,M,0000,0000*60
$GPGSV,3,1,09,05,78,113,36,20,51,052,26,25,42,221,33,48,39,209,40*72
$GPGSV,3,2,09,11,28,064,24,12,28,188,30,13,12,128,27,26,08,323,*75
$GPGSV,3,3,09,29,,,17*7D
$GPGGA,213902.000,4000.6557,N,10514.4828,W,2,06,1.57,1631.9,M,-20.6,M,0000,0000*64
$GPGSV,3,1,09,05,78,113,36,20,51,052,26,25,42,221,33,48,39,209,40*72
$GPGSV,3,2,09,11,28,064,24,12,28,188,30,13,12,128,27,26,08,323,*75
$GPGSV,3,3,09,29,,,17*7D
$GPGGA,213903.000,4000.6558,N,10514.4828,W,2,06,1.57,1631.6,M,-20.6,M,0000,0000*65
$GPGSV,3,1,09,05,78,113,36,20,51,052,26,25,42,221,33,48,39,209,40*72
$GPGSV,3,2,09,11,28,064,23,12,28,188,30,13,12,128,27,26,08,323,*72
$GPGSV,3,3,09,29,,,17*7D
$GPGGA,213904.000,4000.6558,N,10514.4828,W,2,06,1.57,1631.4,M,-20.6,M,0000,0000*60
$GPGSV,3,1,09,05,78,113,36,20,51,052,27,25,42,221,33,48,39,209,40*73
$GPGSV,3,2,09,11,28,064,22,12,28,188,30,13,12,128,28,26,08,323,*7C
$GPGSV,3,3,09,29,,,17*7D
$GPGGA,213905.000,4000.6556,N,10514.4827,W,2,06,2.34,1631.4,M,-20.6,M,0000,0000*66
$GPGSV,3,1,09,05,78,113,36,20,51,052,27,25,42,221,33,48,39,209,40*73
$GPGSV,3,2,09,11,28,064,22,12,28,188,30,13,12,128,27,26,08,323,*73
$GPGSV,3,3,09,29,,,17*7D
$GPGGA,213906.000,4000.6557,N,10514.4827,W,2,06,1.57,1631.4,M,-20.6,M,0000,0000*62
$GPGSV,3,1,09,05,78,113,36,20,51,052,27,25,41,220,33,48,39,209,40*71
$GPGSV,3,2,09,11,28,064,23,12,28,188,31,13,12,128,27,26,08,323,*73
$GPGSV,3,3,09,29,,,17*7D
$GPGGA,213907.000,4000.6555,N,10514.4824,W,2,06,1.57,1631.6,M,-20.6,M,0000,0000*60
$GPGSV,3,1,09,05,78,113,36,20,51,052,26,25,41,220,34,48,39,209,39*79
$GPGSV,3,2,09,11,28,064,23,12,28,188,33,13,12,128,28,26,08,323,*7E
$GPGSV,3,3,09,29,,,17*7D
$GPGGA,213908.000,4000.6555,N,10514.4823,W,2,06,1.57,1631.7,M,-20.6,M,0000,0000*69
$GPGSV,3,1,09,05,78,113,36,20,51,052,26,25,41,220,34,48,39,209,38*78
$GPGSV,3,2,09,11,28,064,24,12,28,188,34,13,12,128,28,26,08,323,*7E
$GPGSV,3,3,09,29,,,19*73
$GPGGA,213909.000,4000.6555,N,10514.4819,W,2,06,1.57,1631.9,M,-20.6,M,0000,0000*6F
$GPGSV,3,1,09,05,78,113,36,20,51,052,26,25,41,220,34,48,39,209,38*78
$GPGSV,3,2,09,11,28,064,26,12,28,188,35,13,12,128,28,26,08,323,*7D
$GPGSV,3,3,09,29,,,19*73
$GPGGA,213910.000,4000.6554,N,10514.4817,W,2,06,1.57,1632.1,M,-20.6,M,0000,0000*63
$GPGSV,3,1,09,05,78,113,36,20,51,052,26,25,41,220,35,48,39,209,38*79
$GPGSV,3,2,09,11,28,064,26,12,28,188,35,13,12,128,28,26,08,323,*7D
$GPGSV,3,3,09,29,,,19*73
$GPGGA,213911.000,4000.6555,N,10514.4815,W,2,06,1.57,1632.1,M,-20.6,M,0000,0000*61
$GPGSV,3,1,09,05,78,113,36,20,51,052,26,25,41,220,35,48,39,209,38*79
$GPGSV,3,2,09,11,28,064,27,12,28,188,36,13,12,128,27,26,08,323,*70
$GPGSV,3,3,09,29,,,19*73
$GPGGA,213912.000,4000.6555,N,10514.4815,W,2,06,1.57,1632.1,M,-20.6,M,0000,0000*62
$GPGSV,3,1,09,05,78,113,35,20,51,052,26,25,41,220,35,48,39,209,38*7A
$GPGSV,3,2,09,11,28,064,28,12,28,188,36,13,12,128,26,26,08,323,*7E
$GPGSV,3,3,09,29,,,19*73
$GPGGA,213913.000,4000.6555,N,10514.4815,W,2,06,1.57,1632.0,M,-20.6,M,0000,0000*62
$GPGSV,3,1,09,05,78,113,35,20,51,052,26,25,41,220,34,48,39,209,38*7B
$GPGSV,3,2,09,11,28,064,28,12,28,188,36,13,12,128,26,26,08,323,*7E
$GPGSV,3,3,09,29,,,19*73
$GPGGA,213914.000,4000.6554,N,10514.4815,W,2,06,1.57,1631.9,M,-20.6,M,0000,0000*6E
$GPGSV,3,1,09,05,78,113,35,20,51,052,26,25,41,220,34,48,39,209,38*7B
$GPGSV,3,2,09,11,28,064,28,12,28,188,37,13,12,128,26,26,08,323,*7F
$GPGSV,3,3,09,29,,,20*79
$GPGGA,213915.000,4000.6555,N,10514.4815,W,2,06,1.57,1631.5,M,-20.6,M,0000,0000*62
$GPGSV,3,1,09,05,78,113,35,20,51,052,27,25,41,220,24,48,39,209,38*7B
$GPGSV,3,2,09,11,28,064,29,12,28,188,37,13,12,128,24,26,08,323,*7C
$GPGSV,3,3,09,29,,,21*78
$GPGGA,213916.000,4000.6556,N,10514.4816,W,2,06,1.57,1631.2,M,-20.6,M,0000,0000*66
$GPGSV,3,1,09,05,78,113,36,20,51,052,28,25,41,220,23,48,39,209,38*70
$GPGSV,3,2,09,11,28,064,29,12,28,188,36,13,12,128,23,26,08,323,*7A
$GPGSV,3,3,09,29,,,21*78
$GPGGA,213917.000,4000.6556,N,10514.4816,W,2,06,2.33,1631.2,M,-20.6,M,0000,0000*66
$GPGSV,3,1,09,05,78,113,37,20,51,052,28,25,41,220,35,48,39,209,40*79
$GPGSV,3,2,09,11,28,064,28,12,28,188,36,13,12,128,23,26,08,323,*7B
$GPGSV,3,3,09,29,,,21*78
$GPGGA,213918.000,4000.6556,N,10514.4816,W,2,06,1.57,1631.3,M,-20.6,M,0000,0000*69
$GPGSV,3,1,09,05,78,113,37,20,51,052,28,25,41,220,35,48,39,209,40*79
$GPGSV,3,2,09,11,28,064,28,12,28,188,35,13,12,128,22,26,08,323,*79
$GPGSV,3,3,09,29,,,21*78
$GPGGA,213919.000,4000.6557,N,10514.4816,W,2,06,2.33,1631.3,M,-20.6,M,0000,0000*68
$GPGSV,3,1,09,05,78,113,37,20,51,052,28,25,41,220,35,48,39,209,40*79
$GPGSV,3,2,09,11,28,064,29,12,28,188,35,13,12,128,22,26,08,323,*78
$GPGSV,3,3,09,29,,,20*79
$GPGGA,213920.000,4000.6558,N,10514.4816,W,2,06,1.57,1631.3,M,-20.6,M,0000,0000*6C
$GPGSV,3,1,09,05,78,113,37,20,51,052,28,25,41,220,35,48,39,209,41*78
$GPGSV,3,2,09,11,28,064,29,12,28,188,35,13,12,128,21,26,08,323,*7B
$GPGSV,3,3,09,29,,,20*79
$GPGGA,213921.000,4000.6558,N,10514.4816,W,2,06,2.33,1631.3,M,-20.6,M,0000,0000*6C
$GPGSV,3,1,09,05,78,113,37,20,51,052,28,25,41,220,35,48,39,209,41*78
$GPGSV,3,2,09,11,28,064,29,12,28,188,34,13,12,128,20,26,08,323,*7B
$GPGSV,3,3,09,29,,,20*79
$GPGGA,213922.000,4000.6558,N,10514.4816,W,2,06,1.57,1631.3,M,-20.6,M,0000,0000*6E
$GPGSV,3,1,09,05,78,113,37,20,51,052,28,25,41,220,35,48,39,209,41*78
$GPGSV,3,2,09,11,28,064,29,12,28,188,34,13,12,128,19,26,08,323,*71
$GPGSV,3,3,09,29,,,19*73
$GPGGA,213923.000,4000.6558,N,10514.4816,W,2,06,1.57,1631.3,M,-20.6,M,0000,0000*6F
$GPGSV,3,1,09,05,78,111,37,20,51,052,29,25,41,220,36,48,39,209,42*7B
$GPGSV,3,2,09,11,28,064,29,12,28,188,34,13,12,128,18,26,08,323,*70
$GPGSV,3,3,09,29,,,19*73
$GPGGA,213924.000,4000.6558,N,10514.4816,W,2,06,1.57,1631.3,M,-20.6,M,0000,0000*68
$GPGSV,3,1,10,05,78,111,37,20,51,052,29,25,41,220,36,48,39,209,42*73
$GPGSV,3,2,10,11,28,064,29,12,28,188,34,13,12,128,20,26,08,323,*73
$GPGSV,3,3,10,29,,,19,15,,,23*7E
$GPGGA,213925.000,4000.6559,N,10514.4815,W,2,06,1.57,1631.3,M,-20.6,M,0000,0000*6B
$GPGSV,3,1,10,05,78,111,37,20,51,052,29,25,41,220,37,48,39,209,42*72
$GPGSV,3,2,10,11,28,064,29,12,28,188,34,13,12,128,19,26,08,323,*79
$GPGSV,3,3,10,29,,,19,15,,,25*78
$GPGGA,213926.000,4000.6559,N,10514.4815,W,2,06,1.57,1631.3,M,-20.6,M,0000,0000*68
$GPGSV,3,1,10,05,78,111,37,20,51,052,29,25,41,220,37,48,39,209,42*72
$GPGSV,3,2,10,11,28,064,29,12,28,188,34,13,12,128,19,26,08,323,*79
$GPGSV,3,3,10,29,,,19,15,,,27*7A
$GPGGA,213927.000,4000.6559,N,10514.4814,W,2,06,1.57,1631.2,M,-20.6,M,0000,0000*69
$GPGSV,3,1,10,05,78,111,37,20,51,052,29,25,41,220,37,48,39,209,42*72
$GPGSV,3,2,10,11,28,064,29,12,28,188,34,13,12,128,19,26,08,323,*79
$GPGSV,3,3,10,29,,,20,15,,,22*75
$GPGGA,213928.000,4000.6559,N,10514.4814,W,2,06,1.57,1631.2,M,-20.6,M,0000,0000*66
$GPGSV,3,1,10,05,78,111,37,20,51,052,29,25,41,220,37,48,39,209,42*72
$GPGSV,3,2,10,11,28,064,29,12,28,188,34,13,12,128,21,26,08,323,*72
$GPGSV,3,3,10,29,,,20,15,,,24*73
$GPGGA,213929.000,4000.6559,N,10514.4813,W,2,06,1.57,1631.2,M,-20.6,M,0000,0000*60
$GPGSV,3,1,10,05,78,111,37,20,51,052,29,25,41,220,37,48,39,209,42*72
$GPGSV,3,2,10,11,28,065,29,12,28,188,34,13,12,128,21,26,08,323,*73
$GPGSV,3,3,10,29,,,20,15,,,22*75
$GPGGA,213930.000,4000.6559,N,10514.4813,W,2,06,2.33,1631.2,M,-20.6,M,0000,0000*69
$GPGSV,3,1,11,05,78,111,37,20,51,052,29,25,41,220,37,48,39,209,42*73
$GPGSV,3,2,11,11,28,065,29,12,27,188,34,13,12,128,21,26,08,323,*7D
$GPGSV,3,3,11,29,,,20,15,,,23,18,,,29*77
$GPGGA,213931.000,4000.6559,N,10514.4813,W,2,06,1.57,1631.2,M,-20.6,M,0000,0000*69
$GPGSV,3,1,11,05,78,111,37,20,51,052,29,25,41,220,37,48,39,209,42*73
$GPGSV,3,2,11,11,28,065,29,12,27,188,34,13,13,128,23,26,08,323,*7E
$GPGSV,3,3,11,29,,,20,15,,,23,18,,,29*77
$GPGGA,213932.000,4000.6559,N,10514.4813,W,2,06,1.57,1631.2,M,-20.6,M,0000,0000*6A
$GPGSV,3,1,11,05,78,111,37,20,51,052,28,25,41,220,37,48,39,209,42*72
$GPGSV,3,2,11,11,28,065,29,12,27,188,34,13,13,128,23,26,08,323,*7E
$GPGSV,3,3,11,29,,,20,15,,,23,18,,,28*76
$GPGGA,213933.000,4000.6560,N,10514.4812,W,2,06,2.33,1631.2,M,-20.6,M,0000,0000*61
$GPGSV,3,1,11,05,78,111,37,20,51,052,28,25,41,220,37,48,39,209,42*72
$GPGSV,3,2,11,11,28,065,29,12,27,188,34,13,13,128,23,26,08,323,*7E
$GPGSV,3,3,11,29,,,20,15,,,23,18,,,29*77
$GPGGA,213934.000,4000.6560,N,10514.4812,W,2,06,2.33,1631.2,M,-20.6,M,0000,0000*66
$GPGSV,3,1,11,05,78,111,37,20,51,052,28,25,41,220,37,48,39,209,42*72
$GPGSV,3,2,11,11,28,065,28,12,27,188,34,13,13,128,24,26,08,323,*78
$GPGSV,3,3,11,29,,,19,15,,,23,18,,,28*7C
$GPGGA,213935.000,4000.6561,N,10514.4813,W,2,06,1.57,1631.2,M,-20.6,M,0000,0000*66
$GPGSV,3,1,11,05,78,111,37,20,51,052,28,25,41,220,37,48,39,209,42*72
$GPGSV,3,2,11,11,28,065,28,12,27,188,34,13,13,128,24,26,08,323,*78
$GPGSV,3,3,11,29,,,19,15,,,23,18,,,27*73
$GPGGA,213936.000,4000.6562,N,10514.4813,W,2,06,1.57,1631.2,M,-20.6,M,0000,0000*66
$GPGSV,3,1,11,05,78,111,37,20,51,052,28,25,41,220,37,48,39,209,42*72
$GPGSV,3,2,11,11,28,065,28,12,27,188,34,13,13,128,24,26,08,323,*78
$GPGSV,3,3,11,29,,,19,15,,,22,18,,,28*7D
$GPGGA,213937.000,4000.6562,N,10514.4814,W,2,06,1.57,1631.2,M,-20.6,M,0000,0000*60
$GPGSV,3,1,11,05,78,111,38,20,51,052,28,25,41,220,37,48,39,209,42*7D
$GPGSV,3,2,11,11,28,065,28,12,27,188,34,13,13,128,25,26,08,323,*79
$GPGSV,3,3,11,29,,,19,15,,,23,18,,,28*7C
$GPGGA,213938.000,4000.6563,N,10514.4815,W,2,06,1.57,1631.2,M,-20.6,M,0000,0000*6F
$GPGSV,3,1,11,05,78,111,38,20,51,052,28,25,41,220,37,48,39,209,42*7D
$GPGSV,3,2,11,11,28,065,27,12,27,188,34,13,13,128,26,26,08,323,*75
$GPGSV,3,3,11,29,,,18,15,,,23,18,,,28*7D
$GPGGA,213939.000,4000.6564,N,10514.4815,W,2,06,1.57,1631.2,M,-20.6,M,0000,0000*69
$GPGSV,3,1,11,05,78,111,38,20,51,052,29,25,41,220,37,48,39,209,42*7C
$GPGSV,3,2,11,11,28,065,27,12,27,188,34,13,13,128,26,26,08,323,*75
$GPGSV,3,3,11,29,,,18,15,,,23,18,,,28*7D
$GPGGA,213940.000,4000.6565,N,10514.4816,W,2,06,1.57,1631.2,M,-20.6,M,0000,0000*65
$GPGSV,3,1,11,05,78,111,38,20,51,052,29,25,41,220,37,48,39,209,42*7C
$GPGSV,3,2,11,11,28,065,26,12,27,188,34,13,13,128,25,26,08,323,*77
$GPGSV,3,3,11,29,,,18,15,,,23,18,,,28*7D
$GPGGA,213941.000,4000.6565,N,10514.4817,W,2,06,1.57,1631.2,M,-20.6,M,0000,0000*65
$GPGSV,3,1,11,05,78,111,38,20,51,052,29,25,41,220,37,48,39,209,42*7C
$GPGSV,3,2,11,11,28,065,26,12,27,188,34,13,13,128,26,26,08,323,*74
$GPGSV,3,3,11,29,,,18,15,,,22,18,,,28*7C
$GPGGA,213942.000,4000.6566,N,10514.4818,W,2,06,1.57,1631.2,M,-20.6,M,0000,0000*6A
$GPGSV,3,1,11,05,78,111,38,20,51,052,29,25,41,220,37,48,39,209,42*7C
$GPGSV,3,2,11,11,28,065,26,12,27,188,34,13,13,128,26,26,08,323,*74
$GPGSV,3,3,11,29,,,18,15,,,22,18,,,28*7C
$GPGGA,213943.000,4000.6566,N,10514.4818,W,2,06,1.57,1631.2,M,-20.6,M,0000,0000*6B
$GPGSV,3,1,11,05,78,111,38,20,51,052,29,25,41,220,37,48,39,209,42*7C
$GPGSV,3,2,11,11,28,065,27,12,27,188,34,13,13,128,27,26,08,323,*74
$GPGSV,3,3,11,29,,,18,15,,,21,18,,,28*7F
$GPGGA,213944.000,4000.6567,N,10514.4819,W,2,06,1.57,1631.2,M,-20.6,M,0000,0000*6C
$GPGSV,3,1,11,05,78,111,38,20,51,052,29,25,41,220,37,48,39,209,42*7C
$GPGSV,3,2,11,11,28,065,27,12,27,188,34,13,13,128,27,26,08,323,*74
$GPGSV,3,3,11,29,,,18,15,,,21,18,,,28*7F
$GPGGA,213945.000,4000.6567,N,10514.4819,W,2,06,1.57,1631.2,M,-20.6,M,0000,0000*6D
$GPGSV,3,1,11,05,78,111,38,20,51,052,29,25,41,220,37,48,39,209,42*7C
$GPGSV,3,2,11,11,28,065,27,12,27,188,34,13,13,128,28,26,08,322,*7A
$GPGSV,3,3,11,29,,,18,15,,,20,18,,,28*7E
$GPGGA,213946.000,4000.6566,N,10514.4820,W,2,06,1.57,1631.2,M,-20.6,M,0000,0000*65
$GPGSV,3,1,11,05,78,111,38,20,51,052,29,25,41,220,37,48,39,209,42*7C
$GPGSV,3,2,11,11,28,065,27,12,27,188,34,13,13,128,28,26,08,322,*7A
$GPGSV,3,3,11,29,,,18,15,,,20,18,,,28*7E
$GPGGA,213947.000,4000.6566,N,10514.4820,W,2,06,1.57,1631.2,M,-20.6,M,0000,0000*64
$GPGSV,3,1,11,05,78,111,38,20,51,052,29,25,41,220,37,48,39,209,42*7C
$GPGSV,3,2,11,11,28,065,26,12,27,188,34,13,13,128,28,26,08,322,*7B
$GPGSV,3,3,11,29,,,19,15,,,21,18,,,28*7E
$GPGGA,213948.000,4000.6566,N,10514.4820,W,2,06,1.57,1631.2,M,-20.6,M,0000,0000*6B
$GPGSV,3,1,11,05,78,111,38,20,51,052,29,25,41,220,37,48,39,209,42*7C
$GPGSV,3,2,11,11,28,065,26,12,27,188,34,13,13,128,28,26,08,322,*7B
$GPGSV,3,3,11,29,,,19,15,,,20,18,,,28*7F
$GPGGA,213949.000,4000.6566,N,10514.4821,W,2,06,1.57,1631.2,M,-20.6,M,0000,0000*6B
$GPGSV,3,1,11,05,78,111,38,20,51,052,29,25,41,220,37,48,39,209,42*7C
$GPGSV,3,2,11,11,28,065,26,12,27,188,34,13,13,128,28,26,08,322,*7B
$GPGSV,3,3,11,29,,,19,15,,,19,18,,,28*75
$GPGGA,213950.000,4000.6567,N,10514.4822,W,2,06,1.57,1631.2,M,-20.6,M,0000,0000*61
$GPGSV,3,1,11,05,78,111,38,20,51,052,29,25,41,220,37,48,39,209,42*7C
$GPGSV,3,2,11,11,28,065,26,12,27,188,34,13,13,128,27,26,08,322,*74
$GPGSV,3,3,11,29,,,20,15,,,18,18,,,28*7E
$GPGGA,213951.000,4000.6568,N,10514.4823,W,2,06,1.57,1631.2,M,-20.6,M,0000,0000*6E
$GPGSV,3,1,11,05,78,111,38,20,51,052,29,25,41,220,37,48,39,209,42*7C
$GPGSV,3,2,11,11,28,065,27,12,27,188,34,13,13,128,28,26,08,322,*7A
$GPGSV,3,3,11,29,,,20,15,,,18,18,,,28*7E
$GPGGA,213952.000,4000.6568,N,10514.4825,W,2,06,1.57,1631.2,M,-20.6,M,0000,0000*6B
$GPGSV,3,1,11,05,78,111,38,20,51,052,29,25,41,220,38,48,39,209,42*73
$GPGSV,3,2,11,11,28,065,28,12,27,188,34,13,13,128,28,26,08,322,*75
$GPGSV,3,3,11,29,,,20,15,,,18,18,,,28*7E
$GPGGA,213953.000,4000.6569,N,10514.4826,W,2,06,1.57,1631.2,M,-20.6,M,0000,0000*68
$GPGSV,3,1,11,05,78,111,38,20,51,052,29,25,41,220,38,48,39,209,42*73
$GPGSV,3,2,11,11,28,065,28,12,27,188,34,13,13,128,29,26,08,322,*74
$GPGSV,3,3,11,29,,,20,15,,,18,18,,,28*7E
$GPGGA,213954.000,4000.6569,N,10514.4827,W,2,06,1.57,1631.2,M,-20.6,M,0000,0000*6E
$GPGSV,3,1,11,05,78,111,38,20,51,052,30,25,41,220,38,48,39,209,42*7B
$GPGSV,3,2,11,11,28,065,28,12,27,188,34,13,13,128,29,26,08,322,*74
$GPGSV,3,3,11,29,,,21,15,,,19,18,,,28*7E
$GPGGA,213955.000,4000.6570,N,10514.4828,W,2,06,1.57,1631.2,M,-20.6,M,0000,0000*68
$GPGSV,3,1,11,05,78,111,38,20,51,052,30,25,41,220,38,48,39,209,42*7B
$GPGSV,3,2,11,11,28,065,28,12,27,188,34,13,13,128,28,26,08,322,*75
$GPGSV,3,3,11,29,,,22,15,,,19,18,,,28*7D
$GPGGA,213956.000,4000.6570,N,10514.4828,W,2,06,1.57,1631.2,M,-20.6,M,0000,0000*6B
$GPGSV,3,1,11,05,78,111,38,20,51,052,30,25,41,220,38,48,39,209,42*7B
$GPGSV,3,2,11,11,28,065,28,12,27,188,35,13,13,128,28,26,08,322,*74
$GPGSV,3,3,11,29,,,22,15,,,19,18,,,28*7D
$GPGGA,213957.000,4000.6570,N,10514.4828,W,2,06,2.33,1631.2,M,-20.6,M,0000,0000*6B
$GPGSV,3,1,11,05,78,111,38,20,51,052,29,25,41,220,38,48,39,209,42*73
$GPGSV,3,2,11,11,28,065,28,12,27,188,35,13,13,128,28,26,08,322,*74
$GPGSV,3,3,11,29,,,22,15,,,19,18,,,28*7D
$GPGGA,213958.000,4000.6571,N,10514.4827,W,2,06,1.57,1631.2,M,-20.6,M,0000,0000*6B
$GPGSV,3,1,11,05,78,111,38,20,51,052,29,25,41,220,38,48,39,209,42*73
$GPGSV,3,2,11,11,28,065,28,12,27,188,35,13,13,128,28,26,08,322,*74
$GPGSV,3,3,11,29,,,22,15,,,20,18,,,28*77
$GPGGA,213959.000,4000.6571,N,10514.4827,W,2,06,1.57,1631.2,M,-20.6,M,0000,0000*6A
$GPGSV,3,1,11,05,78,110,38,20,51,052,29,25,41,220,37,48,39,209,42*7D
$GPGSV,3,2,11,11,28,065,28,12,27,188,35,13,13,128,28,26,08,322,*74
$GPGSV,3,3,11,29,,,22,15,,,20,18,,,28*77
$GPGGA,214000.000,4000.6571,N,10514.4827,W,2,06,1.57,1631.1,M,-20.6,M,0000,0000*6B
$GPGSV,3,1,11,05,78,110,38,20,51,052,29,25,41,220,37,48,39,209,42*7D
$GPGSV,3,2,11,11,28,065,28,12,27,188,35,13,13,128,28,26,08,322,*74
$GPGSV,3,3,11,29,,,23,15,,,19,18,,,28*7C
$GPGGA,214001.000,4000.6571,N,10514.4827,W,2,07,1.09,1631.1,M,-20.6,M,0000,0000*60
$GPGSV,3,1,11,05,78,110,38,20,51,052,29,25,41,220,37,48,39,209,42*7D
$GPGSV,3,2,11,11,28,065,28,12,27,188,35,18,23,269,28,13,13,128,27*7B
$GPGSV,3,3,11,26,08,322,,29,,,23,15,,,18*41
$GPGGA,214002.000,4000.6573,N,10514.4830,W,2,07,1.09,1630.8,M,-20.6,M,0000,0000*6F
$GPGSV,3,1,11,05,78,110,38,20,51,052,29,25,41,220,37,48,39,209,42*7D
$GPGSV,3,2,11,11,28,065,28,12,27,188,35,18,23,269,28,13,13,128,27*7B
$GPGSV,3,3,11,26,08,322,,29,,,23,15,,,18*41
$GPGGA,214003.000,4000.6573,N,10514.4830,W,2,07,1.09,1630.8,M,-20.6,M,0000,0000*6E
$GPGSV,3,1,11,05,78,110,38,20,51,052,29,25,41,220,37,48,39,209,42*7D
$GPGSV,3,2,11,11,28,065,28,12,27,188,35,18,23,269,28,13,13,128,27*7B
$GPGSV,3,3,11,26,08,322,,29,,,23,15,,,18*41
$GPGGA,214004.000,4000.6573,N,10514.4830,W,2,07,1.09,1630.8,M,-20.6,M,0000,0000*69
$GPGSV,3,1,11,05,78,110,38,20,51,052,29,25,41,220,37,48,39,209,42*7D
$GPGSV,3,2,11,11,28,065,28,12,27,188,35,18,23,269,28,13,13,128,27*7B
$GPGSV,3,3,11,26,08,322,,29,,,23,15,,,18*41
$GPGGA,214005.000,4000.6574,N,10514.4830,W,2,07,1.13,1630.8,M,-20.6,M,0000,0000*64
$GPGSV,3,1,11,05,78,110,38,20,51,052,28,25,41,220,37,48,39,209,42*7C
$GPGSV,3,2,11,11,28,065,28,12,27,188,35,18,23,269,28,13,13,128,27*7B
$GPGSV,3,3,11,26,08,322,,29,,,23,15,,,18*41
$GPGGA,214006.000,4000.6574,N,10514.4830,W,2,07,1.09,1630.8,M,-20.6,M,0000,0000*6C
$GPGSV,3,1,11,05,78,110,38,20,51,052,28,25,41,220,37,48,39,209,42*7C
$GPGSV,3,2,11,11,27,065,28,12,27,188,35,18,23,269,28,13,13,128,28*7B
$GPGSV,3,3,11,26,08,322,,29,,,23,15,,,18*41
$GPGGA,214007.000,4000.6574,N,10514.4830,W,2,07,1.09,1630.8,M,-20.6,M,0000,0000*6D
$GPGSV,3,1,11,05,78,110,38,20,51,052,28,25,41,220,37,48,39,209,42*7C
$GPGSV,3,2,11,11,27,065,28,12,27,188,35,18,23,269,28,13,13,128,28*7B
$GPGSV,3,3,11,26,08,322,,29,,,23,15,,,18*41
$GPGGA,214008.000,4000.6573,N,10514.4830,W,2,07,1.09,1630.8,M,-20.6,M,0000,0000*65
$GPGSV,3,1,11,05,78,110,38,20,51,052,28,25,41,220,37,48,39,209,42*7C
$GPGSV,3,2,11,11,27,065,28,12,27,188,35,18,23,269,28,13,13,128,28*7B
$GPGSV,3,3,11,26,08,322,,29,,,23,15,,,18*41
$GPGGA,214009.000,4000.6573,N,10514.4830,W,2,07,1.09,1630.8,M,-20.6,M,0000,0000*64
$GPGSV,3,1,11,05,78,110,38,20,51,052,28,25,41,220,37,48,39,209,42*7C
$GPGSV,3,2,11,11,27,065,28,12,27,188,35,18,23,269,28,13,13,128,28*7B
$GPGSV,3,3,11,26,08,322,,29,,,24,15,,,18*46
$GPGGA,214010.000,4000.6572,N,10514.4830,W,2,07,1.09,1630.8,M,-20.6,M,0000,0000*6D
$GPGSV,3,1,11,05,78,110,38,20,51,052,28,25,41,220,37,48,39,209,42*7C
$GPGSV,3,2,11,11,27,065,28,12,27,188,35,18,23,269,28,13,13,128,28*7B
$GPGSV,3,3,11,26,08,322,,29,,,24,15,,,19*47
$GPGGA,214011.000,4000.6572,N,10514.4830,W,2,07,1.09,1630.8,M,-20.6,M,0000,0000*6C
$GPGSV,3,1,11,05,78,110,38,20,51,052,28,25,41,220,37,48,39,209,42*7C
$GPGSV,3,2,11,11,27,065,28,12,27,188,35,18,23,269,28,13,13,128,28*7B
$GPGSV,3,3,11,26,08,322,,29,,,24,15,,,19*47
$GPGGA,214012.000,4000.6572,N,10514.4829,W,2,07,1.09,1630.8,M,-20.6,M,0000,0000*67
$GPGSV,3,1,11,05,78,110,38,20,51,052,28,25,41,220,37,48,39,209,42*7C
$GPGSV,3,2,11,11,27,065,27,12,27,188,35,18,23,269,28,13,13,128,28*74
$GPGSV,3,3,11,26,08,322,,29,,,24,15,,,19*47
$GPGGA,214013.000,4000.6571,N,10514.4830,W,2,07,1.09,1630.8,M,-20.6,M,0000,0000*6D
$GPGSV,3,1,11,05,78,110,38,20,51,052,28,25,41,220,37,48,39,209,42*7C
$GPGSV,3,2,11,11,27,065,27,12,27,188,35,18,23,269,28,13,13,128,28*74
$GPGSV,3,3,11,26,08,322,,29,,,24,15,,,18*46
$GPGGA,214014.000,4000.6571,N,10514.4830,W,2,07,1.09,1630.8,M,-20.6,M,0000,0000*6A
$GPGSV,3,1,11,05,78,110,38,20,51,052,28,25,41,220,37,48,39,209,42*7C
$GPGSV,3,2,11,11,27,065,27,12,27,188,35,18,23,269,28,13,13,128,28*74
$GPGSV,3,3,11,26,08,322,,29,,,24,15,,,18*46
$GPGGA,214015.000,4000.6571,N,10514.4829,W,2,07,1.09,1630.8,M,-20.6,M,0000,0000*63
$GPGSV,3,1,11,05,78,110,38,20,51,052,27,25,41,220,37,48,39,209,42*73
$GPGSV,3,2,11,11,27,065,27,12,27,188,35,18,23,269,28,13,13,128,28*74
$GPGSV,3,3,11,26,08,322,,29,,,24,15,,,19*47
$GPGGA,214016.000,4000.6571,N,10514.4830,W,2,07,1.09,1630.8,M,-20.6,M,0000,0000*68
$GPGSV,3,1,11,05,78,110,38,20,50,052,26,25,41,220,37,48,39,209,42*73
$GPGSV,3,2,11,11,27,065,27,12,27,188,35,18,23,269,28,13,13,128,27*7B
$GPGSV,3,3,11,26,08,322,,29,,,24,15,,,19*47
$GPGGA,214017.000,4000.6572,N,10514.4829,W,2,07,1.09,1630.8,M,-20.6,M,0000,0000*62
$GPGSV,3,1,11,05,78,110,38,20,50,052,27,25,41,220,37,48,39,209,42*72
$GPGSV,3,2,11,11,27,065,27,12,27,188,35,18,23,269,28,13,13,128,28*74
$GPGSV,3,3,11,26,08,322,,29,,,24,15,,,20*4D
$GPGGA,214018.000,4000.6572,N,10514.4829,W,2,07,1.09,1630.8,M,-20.6,M,0000,0000*6D
$GPGSV,3,1,11,05,78,110,38,20,50,052,27,25,41,220,37,48,39,209,42*72
$GPGSV,3,2,11,11,27,065,26,12,27,188,35,18,23,269,28,13,13,128,28*75
$GPGSV,3,3,11,26,08,322,,29,,,24,15,,,20*4D
$GPGGA,214019.000,4000.6573,N,10514.4829,W,2,07,1.09,1630.8,M,-20.6,M,0000,0000*6D
$GPGSV,3,1,11,05,78,110,38,20,50,052,27,25,41,220,37,48,39,209,42*72
$GPGSV,3,2,11,11,27,065,26,12,27,188,35,18,23,269,28,13,13,128,28*75
$GPGSV,3,3,11,26,08,322,,29,,,24,15,,,20*4D
$GPGGA,214020.000,4000.6572,N,10514.4828,W,2,07,1.09,1630.8,M,-20.6,M,0000,0000*67
$GPGSV,3,1,11,05,78,110,38,20,50,052,27,25,41,220,37,48,39,209,42*72
$GPGSV,3,2,11,11,27,065,27,12,27,188,35,18,23,269,28,13,13,128,27*7B
$GPGSV,3,3,11,26,08,322,,29,,,24,15,,,20*4D
$GPGGA,214021.000,4000.6572,N,10514.4828,W,2,07,1.09,1630.7,M,-20.6,M,0000,0000*69
$GPGSV,3,1,11,05,78,110,38,20,50,052,27,25,41,220,37,48,39,209,42*72
$GPGSV,3,2,11,11,27,065,27,12,27,188,35,18,23,269,28,13,13,128,26*7A
$GPGSV,3,3,11,26,08,322,,29,,,24,15,,,21*4C
$GPGGA,214022.000,4000.6572,N,10514.4827,W,2,07,1.09,1630.7,M,-20.6,M,0000,0000*65
$GPGSV,3,1,11,05,78,110,38,20,50,052,27,25,41,220,37,48,39,209,42*72
$GPGSV,3,2,11,11,27,065,28,12,27,188,35,18,23,269,28,13,13,128,26*75
$GPGSV,3,3,11,26,08,322,,29,,,24,15,,,21*4C
$GPGGA,214023.000,4000.6571,N,10514.4827,W,2,07,1.09,1630.7,M,-20.6,M,0000,0000*67
$GPGSV,3,1,11,05,78,110,38,20,50,052,27,25,41,220,37,48,39,209,42*72
$GPGSV,3,2,11,11,27,065,28,12,27,188,35,18,23,269,28,13,13,128,26*75
$GPGSV,3,3,11,26,08,322,,29,,,24,15,,,20*4D
$GPGGA,214024.000,4000.6571,N,10514.4827,W,2,07,1.09,1630.7,M,-20.6,M,0000,0000*60
$GPGSV,3,1,11,05,78,110,38,20,50,052,27,25,41,220,37,48,39,209,42*72
$GPGSV,3,2,11,11,27,065,28,12,27,188,35,18,23,269,28,13,13,128,26*75
$GPGSV,3,3,11,26,08,322,,29,,,25,15,,,20*4C
$GPGGA,214025.000,4000.6571,N,10514.4827,W,2,07,1.09,1630.7,M,-20.6,M,0000,0000*61
$GPGSV,3,1,11,05,78,110,38,20,50,052,27,25,41,220,37,48,39,209,42*72
$GPGSV,3,2,11,11,27,065,28,12,27,188,35,18,23,269,28,13,13,128,26*75
$GPGSV,3,3,11,26,08,322,,29,,,25,15,,,20*4C
$GPGGA,214026.000,4000.6571,N,10514.4827,W,2,07,1.09,1630.7,M,-20.6,M,0000,0000*62
$GPGSV,3,1,11,05,78,110,38,20,50,052,27,25,41,220,37,48,39,209,42*72
$GPGSV,3,2,11,11,27,065,28,12,27,188,35,18,23,269,28,13,13,128,26*75
$GPGSV,3,3,11,26,08,322,,29,,,25,15,,,20*4C
$GPGGA,214027.000,4000.6571,N,10514.4827,W,2,07,1.09,1630.7,M,-20.6,M,0000,0000*63
$GPGSV,3,1,11,05,78,110,38,20,50,052,27,25,41,220,38,48,39,209,42*7D
$GPGSV,3,2,11,11,27,065,29,12,27,188,35,18,23,269,29,13,13,128,26*75
$GPGSV,3,3,11,26,08,322,,29,,,25,15,,,21*4D
$GPGGA,214028.000,4000.6571,N,10514.4828,W,2,07,1.09,1630.7,M,-20.6,M,0000,0000*63
$GPGSV,3,1,11,05,78,110,38,20,50,052,28,25,41,220,38,48,39,209,42*72
$GPGSV,3,2,11,11,27,065,29,12,27,188,35,18,23,269,29,13,13,128,26*75
$GPGSV,3,3,11,26,08,322,,29,,,25,15,,,21*4D
$GPGGA,214029.000,4000.6571,N,10514.4828,W,2,07,1.09,1630.7,M,-20.6,M,0000,0000*62
$GPGSV,3,1,11,05,78,110,38,20,50,052,28,25,41,220,38,48,39,209,42*72
$GPGSV,3,2,11,11,27,065,29,12,27,188,35,18,23,269,29,13,13,128,26*75
$GPGSV,3,3,11,26,08,322,,29,,,25,15,,,21*4D
$GPGGA,214030.000,4000.6571,N,10514.4828,W,2,07,1.09,1630.7,M,-20.6,M,0000,0000*6A
$GPGSV,3,1,11,05,78,110,38,20,50,052,28,25,41,220,38,48,39,209,42*72
$GPGSV,3,2,11,11,27,065,29,12,27,188,35,18,23,269,29,13,13,128,26*75
$GPGSV,3,3,11,26,08,322,,29,,,25,15,,,21*4D
$GPGGA,214031.000,4000.6571,N,10514.4828,W,2,07,1.09,1630.7,M,-20.6,M,0000,0000*6B
$GPGSV,3,1,11,05,78,110,38,20,50,052,28,25,41,220,38,48,39,209,42*72
$GPGSV,3,2,11,11,27,065,29,12,27,188,35,18,23,269,29,13,13,128,25*76
$GPGSV,3,3,11,26,08,322,,29,,,25,15,,,21*4D
$GPGGA,214032.000,4000.6571,N,10514.4828,W,2,07,1.09,1630.7,M,-20.6,M,0000,0000*68
$GPGSV,3,1,11,05,78,110,38,20,50,052,28,25,41,220,38,48,39,209,42*72
$GPGSV,3,2,11,11,27,065,29,12,27,188,35,18,23,269,29,13,13,128,25*76
$GPGSV,3,3,11,26,08,322,,29,,,25,15,,,21*4D
$GPGGA,214033.000,4000.6571,N,10514.4828,W,2,07,1.09,1630.7,M,-20.6,M,0000,0000*69
$GPGSV,3,1,11,05,78,110,38,20,50,052,28,25,41,220,38,48,39,209,42*72
$GPGSV,3,2,11,11,27,065,29,12,27,188,35,18,23,269,29,13,13,128,25*76
$GPGSV,3,3,11,26,08,322,,29,,,25,15,,,21*4D
$GPGGA,214034.000,4000.6571,N,10514.4828,W,2,07,1.09,1630.7,M,-20.6,M,0000,0000*6E
$GPGSV,3,1,11,05,78,110,38,20,50,052,28,25,41,220,38,48,39,209,42*72
$GPGSV,3,2,11,11,27,065,29,12,27,188,35,18,23,269,29,13,13,128,25*76
$GPGSV,3,3,11,26,08,322,,29,,,25,15,,,22*4E
$GPGGA,214035.000,4000.6571,N,10514.4828,W,2,07,1.09,1630.7,M,-20.6,M,0000,0000*6F
$GPGSV,3,1,11,05,78,110,38,20,50,052,28,25,41,220,38,48,39,209,42*72
$GPGSV,3,2,11,11,27,065,29,12,27,188,35,18,23,269,29,13,13,128,25*76
$GPGSV,3,3,11,26,08,322,,29,,,25,15,,,21*4D
$GPGGA,214036.000,4000.6572,N,10514.4829,W,2,07,1.09,1630.7,M,-20.6,M,0000,0000*6E
$GPGSV,3,1,11,05,78,108,38,20,50,052,28,25,41,220,38,48,39,209,42*7B
$GPGSV,3,2,11,11,27,065,29,12,27,188,35,18,23,269,29,13,13,128,27*74
$GPGSV,3,3,11,26,08,322,,29,,,25,15,,,21*4D
$GPGGA,214037.000,4000.6572,N,10514.4829,W,2,07,1.09,1630.7,M,-20.6,M,0000,0000*6F
$GPGSV,3,1,11,05,78,108,38,29,61,319,25,20,50,052,28,25,41,220,38*70
$GPGSV,3,2,11,48,39,209,42,11,27,065,29,12,27,188,35,18,23,269,29*71
$GPGSV,3,3,11,13,13,128,25,26,08,322,,15,,,21*7D
$GPGGA,214038.000,4000.6573,N,10514.4830,W,2,07,1.09,1630.7,M,-20.6,M,0000,0000*69
$GPGSV,3,1,11,05,78,108,38,29,61,319,25,20,50,052,28,25,41,220,38*70
$GPGSV,3,2,11,48,39,209,42,11,27,065,29,12,27,188,35,18,23,269,29*71
$GPGSV,3,3,11,13,13,128,26,26,08,322,,15,,,21*7E
$GPGGA,214039.000,4000.6573,N,10514.4831,W,2,07,1.09,1630.7,M,-20.6,M,0000,0000*69
$GPGSV,3,1,11,05,78,108,38,29,61,319,25,20,50,052,27,25,41,220,38*7F
$GPGSV,3,2,11,48,39,209,42,11,27,065,29,12,27,188,35,18,23,269,29*71
$GPGSV,3,3,11,13,13,128,26,26,08,322,,15,,,21*7E
$GPGGA,214040.000,4000.6574,N,10514.4832,W,2,07,1.09,1630.7,M,-20.6,M,0000,0000*63
$GPGSV,3,1,11,05,78,108,38,29,61,319,25,20,50,052,27,25,41,220,38*7F
$GPGSV,3,2,11,48,39,209,42,11,27,065,29,12,27,188,35,18,23,269,30*79
$GPGSV,3,3,11,13,13,128,26,26,08,322,,15,,,21*7E
$GPGGA,214041.000,4000.6574,N,10514.4832,W,2,07,1.09,1630.7,M,-20.6,M,0000,0000*62
$GPGSV,3,1,11,05,78,108,38,29,61,319,24,20,50,052,26,25,41,220,38*7F
$GPGSV,3,2,11,48,39,209,42,11,27,065,29,12,27,188,35,18,23,269,30*79
$GPGSV,3,3,11,13,13,128,26,26,08,322,,15,,,21*7E
$GPGGA,214042.000,4000.6574,N,10514.4833,W,2,07,1.09,1630.7,M,-20.6,M,0000,0000*60
$GPGSV,3,1,11,05,78,108,37,29,61,319,24,20,50,052,26,25,41,220,38*70
$GPGSV,3,2,11,48,39,209,42,11,27,065,29,12,27,188,35,18,23,269,30*79
$GPGSV,3,3,11,13,13,128,26,26,08,322,,15,,,21*7E
$GPGGA,214043.000,4000.6575,N,10514.4833,W,2,07,1.13,1630.7,M,-20.6,M,0000,0000*6B
$GPGSV,3,1,11,05,78,108,37,29,61,319,24,20,50,052,26,25,41,220,38*70
$GPGSV,3,2,11,48,39,209,42,11,27,065,29,12,27,188,35,18,23,269,30*79
$GPGSV,3,3,11,13,13,128,26,26,08,322,,15,,,21*7E
$GPGGA,214044.000,4000.6576,N,10514.4834,W,2,07,1.09,1630.7,M,-20.6,M,0000,0000*63
$GPGSV,3,1,11,05,78,108,37,29,61,319,24,20,50,052,27,25,41,220,38*71
$GPGSV,3,2,11,48,39,209,42,11,27,065,29,12,27,188,35,18,23,269,31*78
$GPGSV,3,3,11,13,13,128,26,26,08,322,,15,,,21*7E
$GPGGA,214045.000,4000.6577,N,10514.4834,W,2,07,1.09,1630.7,M,-20.6,M,0000,0000*63
$GPGSV,3,1,11,05,78,108,37,29,61,319,24,20,50,052,27,25,41,220,38*71
$GPGSV,3,2,11,48,39,209,42,11,27,065,29,12,27,188,35,18,23,269,31*78
$GPGSV,3,3,11,13,13,128,26,26,08,322,,15,,,21*7E
$GPGGA,214046.000,4000.6577,N,10514.4835,W,2,07,1.09,1630.7,M,-20.6,M,0000,0000*61
$GPGSV,3,1,11,05,78,108,37,29,61,319,24,20,50,052,27,25,41,220,38*71
$GPGSV,3,2,11,48,39,209,42,11,27,065,29,12,27,188,35,18,23,269,31*78
$GPGSV,3,3,11,13,13,128,26,26,08,322,,15,,,21*7E
$GPGGA,214047.000,4000.6578,N,10514.4834,W,2,07,1.09,1630.7,M,-20.6,M,0000,0000*6E
$GPGSV,3,1,11,05,78,108,37,29,61,319,23,20,50,052,27,25,41,220,38*76
