$PMTK001,314,3*36
$PMTK001,220,3*30
$PGACK,33,0*6E
$GPGGA,214046.000,4001.1409,N,10514.6393,W,1,03,3.38,170.6,M,-20.6,M,,*5E
$GPGSV,3,1,09,05,78,108,38,29,61,319,21,25,41,220,36,12,27,188,39*74
$GPGSV,3,2,09,18,,,23,01,,,25,20,,,24,26,,,18*76
$GPGSV,3,3,09,11,,,29*7B
$GPGGA,214047.000,4001.1412,N,10514.6392,W,1,03,3.38,170.6,M,-20.6,M,,*54
$GPGSV,3,1,09,05,78,108,37,29,61,319,23,25,41,220,28,12,27,188,32*7D
$GPGSV,3,2,09,18,,,24,01,,,25,20,,,35,26,,,20*7A
$GPGSV,3,3,09,11,,,38*7B
$GPGGA,214048.000,4001.1414,N,10514.6393,W,1,03,3.38,170.6,M,-20.6,M,,*5C
$GPGSV,3,1,09,05,78,108,38,29,61,319,34,25,41,220,27,12,27,188,21*79
$GPGSV,3,2,09,18,,,25,01,,,25,20,,,37,26,,,20*79
$GPGSV,3,3,09,11,,,28*7A
$GPGGA,214048.218,4001.1414,N,10514.6392,W,1,03,3.38,170.6,M,-20.6,M,,*56
$GPGSV,3,1,09,05,78,108,38,29,61,319,33,25,41,220,26,12,27,188,20*7E
$GPGSV,3,2,09,18,,,26,01,,,25,20,,,37,26,,,20*7A
$GPGSV,3,3,09,11,,,40*74
$GPGGA,214050.000,4001.1416,N,10514.6394,W,1,03,3.38,170.6,M,-20.6,M,,*50
$GPGSV,3,1,09,05,78,108,37,29,61,319,41,25,41,220,24,12,27,188,21*77
$GPGSV,3,2,09,18,,,34,01,,,32,20,,,38,26,,,21*71
$GPGSV,3,3,09,11,,,38*7B
$GPGGA,214051.000,4001.1415,N,10514.6396,W,1,03,3.38,170.3,M,-20.6,M,,*55
$GPGSV,3,1,09,05,78,108,35,29,61,319,31,25,41,220,23,12,27,188,22*76
$GPGSV,3,2,09,18,,,34,01,,,34,20,,,38,26,,,21*77
$GPGSV,3,3,09,11,,,36*75
$GPGGA,214052.000,4001.1416,N,10514.6397,W,1,03,3.38,170.4,M,-20.6,M,,*53
$GPGSV,3,1,09,05,78,108,34,29,61,319,32,25,41,220,25,12,27,188,21*71
$GPGSV,3,2,09,18,,,32,01,,,34,20,,,38,26,,,22*72
$GPGSV,3,3,09,11,,,35*76
$GPGGA,214053.000,4001.1419,N,10514.6397,W,1,03,58.52,170.4,M,-20.6,M,,*6F
$GPGSV,3,1,09,05,78,108,34,29,61,319,33,25,41,220,25,12,27,188,21*70
$GPGSV,3,2,09,18,,,34,01,,,35,20,,,39,26,,,22*74
$GPGSV,3,3,09,11,,,36*75
$GPGGA,214054.000,4001.1422,N,10514.6397,W,1,03,58.53,170.6,M,-20.6,M,,*63
$GPGSV,3,1,09,05,78,108,34,29,61,319,40,25,41,220,25,12,27,188,21*74
$GPGSV,3,2,09,18,,,34,01,,,35,20,,,39,26,,,22*74
$GPGSV,3,3,09,11,,,36*75
$GPGGA,214054.210,4001.1423,N,10514.6396,W,1,03,58.53,170.7,M,-20.6,M,,*61
$GPGSV,3,1,09,05,78,108,34,29,61,319,39,25,41,220,25,12,27,188,21*7A
$GPGSV,3,2,09,18,,,32,01,,,33,20,,,39,26,,,22*74
$GPGSV,3,3,09,11,,,36*75
$GPGGA,214056.000,4001.1432,N,10514.6397,W,1,03,58.54,171.3,M,-20.6,M,,*63
$GPGSV,3,1,09,05,78,108,34,29,61,319,40,25,41,220,25,12,27,188,22*77
$GPGSV,3,2,09,18,,,31,01,,,32,20,,,39,26,,,21*75
$GPGSV,3,3,09,11,,,36*75
$GPGGA,214057.000,4001.1437,N,10514.6395,W,1,03,58.54,171.7,M,-20.6,M,,*61
$GPGSV,3,1,09,05,78,108,34,29,61,319,40,25,41,220,26,12,27,188,22*74
$GPGSV,3,2,09,18,,,32,01,,,32,20,,,39,26,,,21*76
$GPGSV,3,3,09,11,,,36*75
$GPGGA,214058.000,4001.1443,N,10514.6394,W,1,03,58.55,172.1,M,-20.6,M,,*68
$GPGSV,3,1,09,05,78,108,35,29,61,319,40,25,41,220,25,12,27,188,22*76
$GPGSV,3,2,09,18,,,31,01,,,31,20,,,39,26,,,20*77
$GPGSV,3,3,09,11,,,35*76
$GPGGA,214059.000,4001.1449,N,10514.6393,W,1,03,58.55,172.5,M,-20.6,M,,*60
$GPGSV,3,1,09,05,78,108,35,29,61,319,39,25,41,220,25,12,27,188,21*7B
$GPGSV,3,2,09,18,,,30,01,,,32,20,,,38,26,,,20*74
$GPGSV,3,3,09,11,,,35*76
$GPGGA,214100.000,4001.1455,N,10514.6391,W,1,03,58.55,173.0,M,-20.6,M,,*66
$GPGSV,3,1,09,05,78,108,36,29,61,319,38,25,41,220,25,12,27,188,20*78
$GPGSV,3,2,09,18,,,30,01,,,32,20,,,38,26,,,19*7E
$GPGSV,3,3,09,11,,,36*75
$GPGGA,214100.209,4001.1454,N,10514.6391,W,1,05,3.43,173.6,M,-20.6,M,,*55
$GPGSV,3,1,10,05,78,108,36,29,61,319,38,20,50,051,38,51,43,183,*71
$GPGSV,3,2,10,25,41,220,25,11,27,065,36,12,27,188,20,18,,,29*48
$GPGSV,3,3,10,01,,,31,26,,,19*77
$GPGGA,214102.000,4001.1465,N,10514.6391,W,1,05,3.43,174.2,M,-20.6,M,,*5D
$GPGSV,3,1,10,05,78,108,35,29,61,319,37,20,50,051,38,51,43,183,*7D
$GPGSV,3,2,10,25,41,220,24,11,27,065,36,12,27,188,20,18,,,28*48
$GPGSV,3,3,10,01,,,31,26,,,19*77
$GPGGA,214103.000,4001.1463,N,10514.6381,W,1,05,3.44,173.7,M,-20.6,M,,*5E
$GPGSV,3,1,10,05,78,108,34,29,61,319,38,20,50,051,38,51,43,183,*73
$GPGSV,3,2,10,25,41,220,23,11,27,065,36,12,27,188,19,18,,,28*45
$GPGSV,3,3,10,01,,,31,26,,,19*77
$GPGGA,214104.000,4001.1476,N,10514.6389,W,1,05,2.78,172.2,M,-20.6,M,,*5F
$GPGSV,3,1,10,05,78,108,34,29,61,319,38,20,50,051,38,51,43,183,*73
$GPGSV,3,2,10,25,41,220,23,11,27,065,36,12,27,188,19,18,,,28*45
$GPGSV,3,3,10,01,,,32,26,,,19*74
$GPGGA,214105.000,4001.1480,N,10514.6391,W,1,05,3.43,172.7,M,-20.6,M,,*52
$GPGSV,3,1,10,05,78,108,33,29,61,319,38,20,50,051,38,51,43,183,*74
$GPGSV,3,2,10,25,41,220,23,11,27,065,35,12,27,188,19,18,,,28*46
$GPGSV,3,3,10,01,,,32,26,,,20*7E
$GPGGA,214106.000,4000.6477,N,10514.6280,W,1,05,2.78,1623.8,M,-20.6,M,,*6A
$GPGSV,3,1,10,05,78,108,33,29,61,319,36,20,50,051,38,51,43,183,*7A
$GPGSV,3,2,10,25,41,220,24,11,27,065,35,12,27,188,19,18,,,28*41
$GPGSV,3,3,10,01,,,30,26,,,20*7C
$GPGGA,214107.000,4000.6481,N,10514.6279,W,1,05,3.43,1623.8,M,-20.6,M,,*6D
$GPGSV,3,1,10,05,78,108,33,29,61,319,36,20,50,051,38,51,43,183,*7A
$GPGSV,3,2,10,25,41,220,24,11,27,065,35,12,27,188,19,18,,,27*4E
$GPGSV,3,3,10,01,,,29,26,,,20*74
$GPGGA,214108.000,4000.6486,N,10514.6280,W,1,05,3.43,1623.8,M,-20.6,M,,*63
$GPGSV,3,1,10,05,78,108,33,29,61,319,36,20,50,051,38,51,43,183,*7A
$GPGSV,3,2,10,25,41,220,24,11,27,065,36,12,27,188,18,18,,,28*43
$GPGSV,3,3,10,01,,,29,26,,,22*76
$GPGGA,214109.000,4000.6494,N,10514.6289,W,1,05,3.43,1623.8,M,-20.6,M,,*68
$GPGSV,3,1,10,05,78,108,33,29,61,319,36,20,50,051,39,51,43,183,*7B
$GPGSV,3,2,10,25,41,220,23,11,27,065,36,12,27,188,18,18,,,27*4B
$GPGSV,3,3,10,01,,,37,26,,,22*79
$GPGGA,214110.000,4000.6496,N,10514.6289,W,1,05,3.43,1623.7,M,-20.6,M,,*6D
$GPGSV,3,1,10,05,78,108,33,29,61,319,36,20,50,051,39,25,41,220,22*70
$GPGSV,3,2,10,48,35,219,,11,27,065,35,12,27,188,19,18,,,29*44
$GPGSV,3,3,10,01,,,36,26,,,20*7A
$GPGGA,214111.000,4000.6500,N,10514.6293,W,1,05,2.78,1623.6,M,-20.6,M,,*61
$GPGSV,3,1,10,05,78,108,33,29,61,319,35,20,50,051,39,25,41,220,21*70
$GPGSV,3,2,10,48,35,219,,11,27,065,35,12,27,188,19,18,,,29*44
$GPGSV,3,3,10,01,,,34,26,,,20*78
$GPGGA,214112.000,4000.6505,N,10514.6297,W,1,05,2.78,1623.6,M,-20.6,M,,*63
$GPGSV,3,1,10,05,78,108,33,29,61,319,36,20,50,051,38,25,41,220,22*71
$GPGSV,3,2,10,48,35,219,,11,27,065,35,12,27,188,19,18,,,28*45
$GPGSV,3,3,10,01,,,34,26,,,22*7A
$GPGGA,214113.000,4000.6513,N,10514.6301,W,1,05,2.78,1623.6,M,-20.6,M,,*6B
$GPGSV,3,1,10,05,78,108,33,29,61,319,36,20,50,051,37,25,41,220,21*7D
$GPGSV,3,2,10,48,35,219,,11,27,065,35,12,27,188,19,18,,,22*4F
$GPGSV,3,3,10,01,,,34,26,,,25*7D
$GPGGA,214114.000,4000.6521,N,10514.6304,W,1,05,2.78,1623.6,M,-20.6,M,,*68
$GPGSV,3,1,10,05,78,108,34,29,61,319,36,20,50,051,38,25,41,220,21*75
$GPGSV,3,2,10,48,35,219,,11,27,065,35,12,27,188,19,18,,,27*4A
$GPGSV,3,3,10,01,,,34,26,,,24*7C
$GPGGA,214115.000,4000.6528,N,10514.6307,W,1,05,3.44,1623.6,M,-20.6,M,,*6D
$GPGSV,3,1,10,05,78,108,34,29,61,319,36,20,50,051,38,25,41,220,21*75
$GPGSV,3,2,10,48,35,219,,11,27,065,36,12,27,188,19,18,,,26*48
$GPGSV,3,3,10,01,,,34,26,,,23*7B
$GPGGA,214116.000,4000.6535,N,10514.6310,W,1,05,3.44,1623.6,M,-20.6,M,,*64
$GPGSV,3,1,10,05,78,108,33,29,61,319,36,20,50,051,38,25,41,220,22*71
$GPGSV,3,2,10,48,35,219,,11,27,065,36,12,27,188,19,18,,,25*4B
$GPGSV,3,3,10,01,,,34,26,,,22*7A
$GPGGA,214117.000,4000.6541,N,10514.6310,W,1,05,3.44,1623.5,M,-20.6,M,,*65
$GPGSV,3,1,10,05,78,106,33,29,61,319,36,20,50,051,39,25,41,220,21*7D
$GPGSV,3,2,10,48,35,219,,11,27,065,36,12,27,188,19,18,,,25*4B
$GPGSV,3,3,10,01,,,35,26,,,23*7A
$GPGGA,214118.000,4000.6546,N,10514.6310,W,1,05,3.44,1623.3,M,-20.6,M,,*6B
$GPGSV,3,1,10,05,78,106,33,29,61,319,34,20,50,051,39,25,41,220,20*7E
$GPGSV,3,2,10,48,35,219,,11,27,065,36,12,27,188,19,18,,,24*4A
$GPGSV,3,3,10,01,,,35,26,,,23*7A
$GPGGA,214119.000,4000.6559,N,10514.6318,W,1,06,1.86,1622.9,M,-20.6,M,,*68
$GPGSV,3,1,10,05,78,106,34,29,61,319,35,20,50,051,39,51,43,183,*71
$GPGSV,3,2,10,25,41,220,19,11,27,065,37,12,27,188,19,18,,,25*40
$GPGSV,3,3,10,01,,,35,26,,,23*7A
$GPGGA,214120.000,4000.6565,N,10514.6320,W,1,06,1.86,1622.7,M,-20.6,M,,*68
$GPGSV,3,1,09,05,78,106,34,29,61,319,36,20,50,051,30,51,43,183,*73
$GPGSV,3,2,09,25,41,220,21,11,27,065,28,12,27,188,19,18,,,39*40
$GPGSV,3,3,09,26,,,25*73
$GPGGA,214121.000,4000.6569,N,10514.6327,W,1,06,1.86,1621.9,M,-20.6,M,,*6F
$GPGSV,3,1,09,05,78,106,34,29,61,319,44,20,50,051,39,51,43,183,*7F
$GPGSV,3,2,09,25,41,220,33,11,27,065,27,12,27,188,19,18,,,40*42
$GPGSV,3,3,09,26,,,26*70
$GPGGA,214122.000,4000.6576,N,10514.6329,W,1,06,1.87,1621.5,M,-20.6,M,,*61
$GPGSV,3,1,09,05,78,106,34,29,61,319,43,20,50,051,31,51,43,183,*70
$GPGSV,3,2,09,25,41,220,32,11,27,065,27,12,27,188,18,18,,,40*42
$GPGSV,3,3,09,26,,,26*70
$GPGGA,214123.000,4000.6579,N,10514.6332,W,1,06,1.86,1621.2,M,-20.6,M,,*63
$GPGSV,3,1,09,05,78,106,34,29,61,319,42,20,50,051,39,51,43,183,*79
$GPGSV,3,2,09,25,41,220,31,11,27,065,28,12,27,188,19,18,,,40*4F
$GPGSV,3,3,09,26,,,26*70
$GPGGA,214124.000,4000.6586,N,10514.6330,W,1,06,1.86,1621.0,M,-20.6,M,,*64
$GPGSV,3,1,09,05,78,106,35,29,61,319,42,20,50,051,38,51,43,183,*79
$GPGSV,3,2,09,25,41,220,30,11,27,065,29,12,27,187,21,18,,,40*4B
$GPGSV,3,3,09,26,,,26*70
$GPGGA,214125.000,4000.6593,N,10514.6332,W,1,06,1.86,1621.1,M,-20.6,M,,*62
$GPGSV,3,1,09,05,78,106,36,29,61,319,42,20,50,051,38,51,43,183,*7A
$GPGSV,3,2,09,25,41,220,29,11,27,065,29,12,27,187,22,18,,,41*41
$GPGSV,3,3,09,26,,,26*70
$GPGGA,214126.000,4000.6602,N,10514.6335,W,1,06,1.87,1620.7,M,-20.6,M,,*6B
$GPGSV,3,1,09,05,78,106,37,29,61,319,42,20,50,051,37,51,43,183,*74
$GPGSV,3,2,09,25,41,220,29,11,27,065,29,12,27,187,22,18,,,41*41
$GPGSV,3,3,09,26,,,24*72
$GPGGA,214127.000,4000.6611,N,10514.6335,W,1,06,1.87,1620.9,M,-20.6,M,,*66
$GPGSV,3,1,09,05,78,106,37,29,61,319,42,20,50,051,37,51,43,183,*74
$GPGSV,3,2,09,25,41,220,30,11,27,065,28,12,27,187,24,18,,,41*4E
$GPGSV,3,3,09,26,,,26*70
$GPGGA,214128.000,4000.6620,N,10514.6334,W,1,06,1.87,1621.0,M,-20.6,M,,*62
$GPGSV,3,1,09,05,78,106,36,29,61,319,42,20,50,051,37,51,43,183,*75
$GPGSV,3,2,09,25,41,220,31,11,27,065,28,12,27,187,24,18,,,41*4F
$GPGSV,3,3,09,26,,,26*70
$GPGGA,214129.000,4000.6630,N,10514.6331,W,1,06,1.87,1620.5,M,-20.6,M,,*63
$GPGSV,3,1,09,05,78,106,36,29,61,319,42,20,50,051,36,25,41,220,31*7D
$GPGSV,3,2,09,48,35,219,,11,27,065,29,12,27,187,24,18,,,40*4F
$GPGSV,3,3,09,26,,,26*70
$GPGGA,214130.000,4000.6635,N,10514.6324,W,1,06,1.54,1620.3,M,-20.6,M,,*62
$GPGSV,3,1,09,05,78,106,38,29,61,319,43,20,50,051,38,25,41,220,29*75
$GPGSV,3,2,09,48,35,219,,11,27,065,29,12,27,187,24,18,,,40*4F
$GPGSV,3,3,09,26,,,19*7C
$GPGGA,214131.000,4000.6644,N,10514.6322,W,1,06,1.87,1620.2,M,-20.6,M,,*6C
$GPGSV,3,1,09,05,78,106,39,29,61,319,33,20,50,051,38,25,41,220,30*7B
$GPGSV,3,2,09,48,35,219,,11,27,065,40,12,27,187,24,18,,,38*4F
$GPGSV,3,3,09,26,,,21*77
$GPGGA,214132.000,4000.6652,N,10514.6326,W,1,06,1.54,1620.3,M,-20.6,M,,*63
$GPGSV,3,1,09,05,78,106,39,29,61,319,32,20,50,051,39,25,41,220,31*7A
$GPGSV,3,2,09,48,35,219,,11,27,065,39,12,27,187,23,18,,,30*4E
$GPGSV,3,3,09,26,,,32*75
$GPGGA,214133.000,4000.6658,N,10514.6334,W,1,06,1.54,1620.3,M,-20.6,M,,*6B
$GPGSV,3,1,09,05,78,106,38,29,61,319,34,20,50,051,39,25,41,220,31*7D
$GPGSV,3,2,09,48,35,219,,11,27,065,39,12,27,187,24,18,,,28*40
$GPGSV,3,3,09,26,,,31*76
$GPGGA,214134.000,4000.6664,N,10514.6338,W,1,06,1.54,1620.2,M,-20.6,M,,*6E
$GPGSV,3,1,09,05,78,106,38,29,61,319,35,20,50,051,40,25,41,220,21*73
$GPGSV,3,2,09,48,35,219,,11,27,065,39,12,27,187,24,18,,,36*4F
$GPGSV,3,3,09,26,,,30*77
$GPGGA,214135.000,4000.6669,N,10514.6343,W,1,06,1.54,1620.2,M,-20.6,M,,*6E
$GPGSV,3,1,09,05,78,106,37,29,61,319,36,20,50,051,40,25,41,220,23*7D
$GPGSV,3,2,09,48,35,219,,11,27,065,39,12,27,187,24,18,,,36*4F
$GPGSV,3,3,09,26,,,28*7E
$GPGGA,214136.000,4000.6673,N,10514.6348,W,1,06,1.54,1620.1,M,-20.6,M,,*6E
$GPGSV,3,1,09,05,78,106,37,29,61,319,37,20,50,051,40,25,41,220,24*7B
$GPGSV,3,2,09,48,35,219,,11,27,065,38,12,27,187,23,18,,,34*4B
$GPGSV,3,3,09,26,,,29*7F
$GPGGA,214137.000,4000.6679,N,10514.6352,W,1,06,1.54,1619.9,M,-20.6,M,,*6C
$GPGSV,3,1,09,05,78,106,38,29,61,319,37,20,50,051,40,25,41,219,24*7E
$GPGSV,3,2,09,48,35,219,,11,27,065,38,12,27,187,24,18,,,34*4C
$GPGSV,3,3,09,26,,,30*77
$GPGGA,214138.000,4000.6683,N,10514.6359,W,1,06,1.54,1619.8,M,-20.6,M,,*6C
$GPGSV,3,1,09,05,78,106,38,29,61,319,36,20,50,051,40,25,41,219,24*7F
$GPGSV,3,2,09,48,35,219,,11,27,065,38,12,27,187,23,18,,,34*4B
$GPGSV,3,3,09,26,,,29*7F
$GPGGA,214139.000,4000.6685,N,10514.6366,W,1,06,1.54,1619.6,M,-20.6,M,,*69
$GPGSV,3,1,09,05,78,106,37,29,61,319,43,20,50,051,40,25,41,219,25*73
$GPGSV,3,2,09,11,27,065,38,12,27,187,22,34,,,,18,,,34*7D
$GPGSV,3,3,09,26,,,28*7E
$GPGGA,214140.000,4000.6689,N,10514.6372,W,1,06,1.54,1619.3,M,-20.6,M,,*6B
$GPGSV,3,1,09,05,78,106,36,29,61,319,43,20,50,051,40,25,41,219,26*71
$GPGSV,3,2,09,11,27,065,38,12,27,187,22,34,,,,18,,,35*7C
$GPGSV,3,3,09,26,,,26*70
$GPGGA,214141.000,4000.6696,N,10514.6377,W,1,06,1.54,1619.2,M,-20.6,M,,*60
$GPGSV,3,1,09,05,78,106,36,29,61,319,43,20,50,051,40,25,41,219,25*72
$GPGSV,3,2,09,11,27,065,38,12,27,187,21,34,,,,18,,,35*7F
$GPGSV,3,3,09,26,,,19*7C
$GPGGA,214142.000,4000.6698,N,10514.6382,W,1,06,1.54,1619.0,M,-20.6,M,,*65
$GPGSV,3,1,09,05,78,106,37,29,61,319,42,20,50,051,39,25,41,219,24*7D
$GPGSV,3,2,09,11,27,065,37,12,27,187,21,34,,,,18,,,35*70
$GPGSV,3,3,09,26,,,20*76
$GPGGA,214143.000,4000.6703,N,10514.6384,W,1,06,1.54,1618.8,M,-20.6,M,,*68
$GPGSV,3,1,09,05,78,106,37,29,61,319,42,20,50,051,39,25,41,219,23*7A
$GPGSV,3,2,09,11,27,065,37,12,27,187,21,34,,,,18,,,36*73
$GPGSV,3,3,09,26,,,20*76
$GPGGA,214144.000,4000.6709,N,10514.6386,W,1,06,1.88,1618.7,M,-20.6,M,,*69
$GPGSV,3,1,09,05,78,106,36,29,61,319,40,20,50,051,40,25,41,219,23*77
$GPGSV,3,2,09,11,27,065,37,12,27,187,20,34,,,,18,,,35*71
$GPGSV,3,3,09,26,,,20*76
$GPGGA,214145.000,4000.6714,N,10514.6391,W,1,06,1.54,1618.7,M,-20.6,M,,*63
$GPGSV,3,1,09,05,78,106,35,29,61,319,41,20,50,051,39,25,41,219,35*7C
$GPGSV,3,2,09,11,27,065,36,12,27,187,21,35,,,,18,,,34*71
$GPGSV,3,3,09,26,,,21*77
$GPGGA,214146.000,4000.6718,N,10514.6397,W,1,06,1.54,1618.7,M,-20.6,M,,*6A
$GPGSV,3,1,09,05,78,106,34,29,61,319,41,20,50,051,40,25,41,219,34*72
$GPGSV,3,2,09,11,27,065,36,12,27,187,22,35,,,,18,,,33*75
$GPGSV,3,3,09,26,,,28*7E
$GPGGA,214147.000,4000.6723,N,10514.6402,W,1,06,1.54,1618.7,M,-20.6,M,,*68
$GPGSV,3,1,09,05,78,106,33,29,61,319,40,20,50,051,40,25,41,219,33*73
$GPGSV,3,2,09,11,27,065,37,12,27,187,23,35,,,,18,,,24*73
$GPGSV,3,3,09,26,,,21*77
$GPGGA,214148.000,4000.6726,N,10514.6408,W,1,06,1.54,1618.7,M,-20.6,M,,*68
$GPGSV,3,1,09,05,78,106,34,29,61,319,40,20,50,051,41,25,41,219,31*77
$GPGSV,3,2,09,11,27,065,38,12,27,187,22,35,,,,18,,,37*7F
$GPGSV,3,3,09,26,,,29*7F
$GPGGA,214149.000,4000.6729,N,10514.6414,W,1,06,1.54,1618.7,M,-20.6,M,,*6B
$GPGSV,3,1,09,05,78,106,34,29,61,319,40,20,50,051,34,25,41,219,38*7C
$GPGSV,3,2,09,11,27,065,36,12,27,187,29,35,,,,18,,,36*7B
$GPGSV,3,3,09,26,,,31*76
$GPGGA,214150.000,4000.6731,N,10514.6420,W,1,06,1.54,1618.7,M,-20.6,M,,*6D
$GPGSV,3,1,09,05,78,106,34,29,61,319,41,20,50,051,34,25,41,219,39*7C
$GPGSV,3,2,09,11,27,065,34,12,27,187,30,35,,,,18,,,28*7E
$GPGSV,3,3,09,26,,,30*77
$GPGGA,214151.000,4000.6732,N,10514.6426,W,1,06,1.54,1618.7,M,-20.6,M,,*69
$GPGSV,3,1,09,05,78,106,35,29,61,319,41,20,50,051,33,25,41,219,38*7B
$GPGSV,3,2,09,11,27,065,34,12,27,187,32,36,,,,18,,,30*76
$GPGSV,3,3,09,26,,,30*77
$GPGGA,214152.000,4000.6734,N,10514.6433,W,1,06,1.54,1618.6,M,-20.6,M,,*69
$GPGSV,3,1,09,05,78,106,35,29,61,319,41,20,50,051,35,25,41,219,38*7D
$GPGSV,3,2,09,11,27,065,33,12,27,187,23,36,,,,18,,,32*73
$GPGSV,3,3,09,26,,,30*77
$GPGGA,214153.000,4000.6736,N,10514.6440,W,1,06,1.54,1618.5,M,-20.6,M,,*6D
$GPGSV,3,1,09,05,78,105,35,29,61,319,33,20,50,051,35,25,41,219,38*7B
$GPGSV,3,2,09,11,27,065,33,12,27,187,31,36,,,,18,,,31*73
$GPGSV,3,3,09,26,,,31*76
$GPGGA,214154.000,4000.6737,N,10514.6448,W,1,06,1.54,1618.3,M,-20.6,M,,*65
$GPGSV,3,1,09,05,78,105,36,29,61,319,35,20,50,051,34,25,41,219,37*70
$GPGSV,3,2,09,11,27,065,34,12,27,187,33,36,,,,18,,,32*75
$GPGSV,3,3,09,26,,,31*76
$GPGGA,214155.000,4000.6738,N,10514.6456,W,1,06,1.54,1618.4,M,-20.6,M,,*63
$GPGSV,3,1,09,05,78,105,36,29,61,319,36,20,50,051,35,25,41,219,37*72
$GPGSV,3,2,09,11,27,065,34,12,27,187,23,36,,,,18,,,31*77
$GPGSV,3,3,09,26,,,29*7F
$GPGGA,214156.000,4000.6740,N,10514.6462,W,1,06,1.54,1618.4,M,-20.6,M,,*68
$GPGSV,3,1,09,05,78,105,36,29,61,319,37,20,50,051,37,25,41,219,28*7F
$GPGSV,3,2,09,11,27,065,35,12,27,187,23,36,,,,18,,,41*71
$GPGSV,3,3,09,26,,,28*7E
$GPGGA,214157.000,4000.6743,N,10514.6467,W,1,06,1.54,1618.3,M,-20.6,M,,*68
$GPGSV,3,1,09,05,78,105,37,29,61,319,39,20,50,051,36,25,41,219,26*7F
$GPGSV,3,2,09,11,27,065,42,12,27,187,22,36,,,,18,,,29*7E
$GPGSV,3,3,09,26,,,21*77
$GPGGA,214158.000,4000.6747,N,10514.6469,W,1,06,1.54,1618.2,M,-20.6,M,,*6C
$GPGSV,3,1,09,05,78,105,38,29,61,319,39,20,50,051,37,25,41,219,26*71
$GPGSV,3,2,09,11,27,065,41,12,27,187,23,38,,,,18,,,28*73
$GPGSV,3,3,09,26,,,23*75
$GPGGA,214159.000,4000.6748,N,10514.6471,W,1,06,1.54,1617.8,M,-20.6,M,,*6E
$GPGSV,3,1,09,05,78,105,40,29,61,319,38,20,50,051,39,25,41,219,26*71
$GPGSV,3,2,09,11,27,065,29,12,27,187,23,38,,,,18,,,26*73
$GPGSV,3,3,09,26,,,25*73
$GPGGA,214200.000,4000.6751,N,10514.6470,W,1,06,1.89,1617.7,M,-20.6,M,,*67
$GPGSV,3,1,09,05,78,105,39,29,61,319,39,20,50,051,28,25,41,219,26*7E
$GPGSV,3,2,09,11,27,065,39,12,26,187,30,38,,,,18,,,28*7F
$GPGSV,3,3,09,26,,,33*74
$GPGGA,214201.000,4000.6758,N,10514.6468,W,1,06,1.54,1617.9,M,-20.6,M,,*68
$GPGSV,3,1,09,05,78,105,40,29,61,319,39,20,50,051,39,25,41,219,34*73
$GPGSV,3,2,09,11,27,065,39,12,26,187,30,38,,,,18,,,27*70
$GPGSV,3,3,09,26,,,32*75
$GPGGA,214202.000,4000.6762,N,10514.6465,W,1,06,1.88,1617.9,M,-20.6,M,,*6E
$GPGSV,3,1,09,05,78,105,41,29,61,319,39,20,50,051,39,25,41,219,32*74
$GPGSV,3,2,09,11,27,065,38,12,26,187,29,38,,,,18,,,26*78
$GPGSV,3,3,09,26,,,31*76
$GPGGA,214203.000,4000.6766,N,10514.6461,W,1,06,1.54,1617.9,M,-20.6,M,,*6E
$GPGSV,3,1,09,05,78,105,41,29,61,319,39,20,50,051,38,25,41,219,30*77
$GPGSV,3,2,09,11,27,065,38,12,26,187,27,38,,,,18,,,27*77
$GPGSV,3,3,09,26,,,29*7F
$GPGGA,214204.000,4000.6771,N,10514.6459,W,1,06,1.54,1618.0,M,-20.6,M,,*62
$GPGSV,3,1,09,05,78,105,41,29,61,319,38,20,50,051,38,25,41,219,30*76
$GPGSV,3,2,09,11,27,065,37,12,26,187,25,41,,,,18,,,26*75
$GPGSV,3,3,09,26,,,29*7F
$GPGGA,214205.000,4000.6776,N,10514.6457,W,1,06,1.54,1618.0,M,-20.6,M,,*6A
$GPGSV,3,1,09,05,78,105,40,29,61,319,37,20,50,051,40,25,41,219,29*7F
$GPGSV,3,2,09,11,27,065,36,12,26,187,26,41,,,,18,,,26*77
$GPGSV,3,3,09,26,,,28*7E
$GPGGA,214206.000,4000.6779,N,10514.6452,W,1,06,1.54,1618.0,M,-20.6,M,,*63
$GPGSV,3,1,09,05,78,105,40,29,61,319,38,20,50,051,38,25,41,219,29*7F
$GPGSV,3,2,09,11,27,065,36,12,26,187,26,41,,,,18,,,27*76
$GPGSV,3,3,09,26,,,27*71
$GPGGA,214207.000,4000.6785,N,10514.6448,W,1,06,1.54,1618.0,M,-20.6,M,,*6A
$GPGSV,3,1,09,05,78,105,40,29,61,319,37,20,50,051,38,25,41,219,29*70
$GPGSV,3,2,09,11,27,065,34,12,26,187,25,41,,,,18,,,28*78
$GPGSV,3,3,09,26,,,25*73
$GPGGA,214208.000,4000.6789,N,10514.6445,W,1,06,1.54,1618.1,M,-20.6,M,,*65
$GPGSV,3,1,09,05,78,105,40,29,61,319,27,20,50,051,37,25,41,219,28*7F
$GPGSV,3,2,09,11,27,065,42,12,26,187,26,41,,,,18,,,27*75
$GPGSV,3,3,09,26,,,24*72
$GPGGA,214209.000,4000.6794,N,10514.6442,W,1,06,1.54,1618.1,M,-20.6,M,,*6F
$GPGSV,3,1,09,05,78,105,39,29,61,319,28,20,50,051,38,25,41,219,27*7E
$GPGSV,3,2,09,11,27,065,42,12,26,187,27,41,,,,18,,,26*75
$GPGSV,3,3,09,26,,,23*75
$GPGGA,214210.000,4000.6798,N,10514.6441,W,1,06,1.54,1618.2,M,-20.6,M,,*6B
$GPGSV,3,1,09,05,78,105,38,29,61,319,29,20,50,051,30,25,41,219,28*79
$GPGSV,3,2,09,11,27,065,42,12,26,187,27,41,,,,18,,,27*74
$GPGSV,3,3,09,26,,,24*72
$GPGGA,214211.000,4000.6800,N,10514.6436,W,1,06,1.54,1618.3,M,-20.6,M,,*65
$GPGSV,3,1,09,05,78,105,38,29,61,319,36,20,50,051,30,25,41,219,27*78
$GPGSV,3,2,09,11,27,065,41,12,26,187,26,43,,,,18,,,27*74
$GPGSV,3,3,09,26,,,23*75
$GPGGA,214212.000,4000.6804,N,10514.6433,W,1,06,1.54,1618.4,M,-20.6,M,,*60
$GPGSV,3,1,09,05,78,105,38,29,61,319,35,20,50,051,39,25,41,219,27*72
$GPGSV,3,2,09,11,27,065,42,12,26,187,25,43,,,,18,,,29*7A
$GPGSV,3,3,09,26,,,22*74
$GPGGA,214213.000,4000.6808,N,10514.6429,W,1,06,1.54,1618.4,M,-20.6,M,,*66
$GPGSV,3,1,09,05,78,105,38,29,61,319,35,20,50,051,38,25,41,219,26*72
$GPGSV,3,2,09,11,27,065,41,12,26,187,25,43,,,,18,,,29*79
$GPGSV,3,3,09,26,,,21*77
$GPGGA,214214.000,4000.6811,N,10514.6426,W,1,06,1.54,1618.4,M,-20.6,M,,*66
$GPGSV,3,1,09,05,78,105,39,29,61,319,34,20,50,051,37,25,41,219,26*7D
$GPGSV,3,2,09,11,27,065,40,12,26,187,33,43,,,,18,,,28*7E
$GPGSV,3,3,09,26,,,23*75
$GPGGA,214215.000,4000.6811,N,10514.6419,W,1,06,1.54,1618.4,M,-20.6,M,,*6B
$GPGSV,3,1,09,05,78,105,40,29,61,319,35,20,50,051,39,25,40,219,26*7D
$GPGSV,3,2,09,11,27,065,39,12,26,187,25,43,,,,18,,,29*76
$GPGSV,3,3,09,26,,,24*72
$GPGGA,214216.000,4000.6814,N,10514.6415,W,1,06,1.54,1618.4,M,-20.6,M,,*61
$GPGSV,3,1,09,05,78,105,40,29,61,319,34,20,50,051,39,25,40,219,25*7F
$GPGSV,3,2,09,11,27,065,32,12,26,187,32,43,,,,18,,,28*7A
$GPGSV,3,3,09,26,,,25*73
$GPGGA,214217.000,4000.6817,N,10514.6413,W,1,06,1.54,1618.4,M,-20.6,M,,*65
$GPGSV,3,1,09,05,78,105,41,29,61,319,35,20,50,051,27,25,40,219,25*70
$GPGSV,3,2,09,11,27,065,40,12,26,187,30,43,,,,18,,,27*72
$GPGSV,3,3,09,26,,,26*70
$GPGGA,214218.000,4000.6818,N,10514.6406,W,1,06,1.54,1618.4,M,-20.6,M,,*61
$GPGSV,3,1,09,05,78,105,42,29,61,319,35,20,50,051,34,25,40,219,26*72
$GPGSV,3,2,09,11,27,065,39,12,26,187,29,45,,,,18,,,28*7D
$GPGSV,3,3,09,26,,,34*73
$GPGGA,214219.000,4000.6823,N,10514.6401,W,1,06,1.55,1618.5,M,-20.6,M,,*6F
$GPGSV,3,1,09,05,78,105,41,29,62,319,36,20,50,051,36,25,40,219,25*70
$GPGSV,3,2,09,11,27,065,39,12,26,187,28,45,,,,18,,,29*7D
$GPGSV,3,3,09,26,,,23*75
$GPGGA,214220.000,4000.6828,N,10514.6396,W,1,06,1.55,1618.5,M,-20.6,M,,*67
$GPGSV,3,1,09,05,78,105,42,29,62,319,37,20,50,051,36,25,40,219,26*71
$GPGSV,3,2,09,11,27,065,31,12,26,187,28,45,,,,18,,,28*74
$GPGSV,3,3,09,26,,,25*73
$GPGGA,214221.000,4000.6833,N,10514.6392,W,1,06,1.54,1618.5,M,-20.6,M,,*69
$GPGSV,3,1,09,05,78,105,42,29,62,319,38,20,50,051,44,25,40,219,25*78
$GPGSV,3,2,09,11,27,065,33,12,26,187,27,45,,,,18,,,30*70
$GPGSV,3,3,09,26,,,27*71
$GPGGA,214222.000,4000.6840,N,10514.6389,W,1,06,1.54,1618.5,M,-20.6,M,,*64
$GPGSV,3,1,09,05,78,105,42,29,62,319,40,20,50,051,37,25,40,219,24*72
$GPGSV,3,2,09,11,27,065,34,12,26,187,26,45,,,,18,,,31*77
$GPGSV,3,3,09,26,,,28*7E
$GPGGA,214223.000,4000.6845,N,10514.6386,W,1,06,1.55,1618.6,M,-20.6,M,,*6D
$GPGSV,3,1,09,05,78,105,42,29,62,319,41,20,50,051,37,25,40,219,24*73
$GPGSV,3,2,09,11,27,065,33,12,26,187,26,45,,,,18,,,31*70
$GPGSV,3,3,09,26,,,27*71
$GPGGA,214224.000,4000.6850,N,10514.6385,W,1,06,1.54,1618.6,M,-20.6,M,,*6C
$GPGSV,3,1,09,05,78,105,41,29,62,319,42,20,50,051,37,25,40,219,24*73
$GPGSV,3,2,09,11,27,065,25,12,26,187,26,46,,,,18,,,38*7D
$GPGSV,3,3,09,26,,,20*76
$GPGGA,214225.000,4000.6854,N,10514.6385,W,1,06,1.90,1618.7,M,-20.6,M,,*60
$GPGSV,3,1,09,05,78,105,40,29,62,319,42,20,50,051,36,25,40,219,24*73
$GPGSV,3,2,09,11,27,065,26,12,26,187,25,46,,,,18,,,38*7D
$GPGSV,3,3,09,26,,,20*76
$GPGGA,214226.000,4000.6860,N,10514.6385,W,1,06,1.90,1618.7,M,-20.6,M,,*64
$GPGSV,3,1,09,05,78,105,40,29,62,319,43,20,50,051,37,25,40,219,24*73
$GPGSV,3,2,09,11,27,065,25,12,26,187,24,46,,,,18,,,37*70
$GPGSV,3,3,09,26,,,20*76
$GPGGA,214227.000,4000.6866,N,10514.6385,W,1,06,1.90,1618.7,M,-20.6,M,,*63
$GPGSV,3,1,09,05,78,105,40,29,62,319,43,20,50,051,38,25,40,219,23*7B
$GPGSV,3,2,09,11,27,065,33,12,26,187,24,46,,,,18,,,35*75
$GPGSV,3,3,09,26,,,21*77
$GPGGA,214228.000,4000.6872,N,10514.6385,W,1,06,1.90,1618.7,M,-20.6,M,,*69
$GPGSV,3,1,09,05,78,105,40,29,62,319,44,20,50,051,39,25,40,219,24*7A
$GPGSV,3,2,09,11,27,065,31,12,26,187,24,46,,,,18,,,36*74
$GPGSV,3,3,09,26,,,21*77
$GPGGA,214229.000,4000.6880,N,10514.6384,W,1,06,1.90,1618.8,M,-20.6,M,,*6B
$GPGSV,3,1,09,05,78,105,40,29,62,319,44,20,50,051,40,25,40,219,25*75
$GPGSV,3,2,09,11,27,065,38,12,26,187,26,46,,,,18,,,36*7F
$GPGSV,3,3,09,26,,,21*77
$GPGGA,214230.000,4000.6887,N,10514.6384,W,1,06,1.90,1618.8,M,-20.6,M,,*64
$GPGSV,3,1,09,05,78,103,42,29,62,319,43,20,50,051,39,25,40,219,24*79
$GPGSV,3,2,09,11,27,065,37,12,26,187,26,46,,,,18,,,28*7F
$GPGSV,3,3,09,26,,,28*7E
$GPGGA,214231.000,4000.6892,N,10514.6385,W,1,06,1.90,1618.8,M,-20.6,M,,*60
$GPGSV,3,1,09,05,78,103,42,29,62,319,41,20,50,051,39,25,40,219,24*7B
$GPGSV,3,2,09,11,27,065,37,12,26,187,27,47,,,,18,,,28*7F
$GPGSV,3,3,09,26,,,27*71
$GPGGA,214232.000,4000.6897,N,10514.6385,W,1,06,1.90,1618.8,M,-20.6,M,,*66
$GPGSV,3,1,09,05,78,103,42,29,62,319,41,20,50,051,38,25,40,219,25*7B
$GPGSV,3,2,09,11,27,065,37,12,26,187,27,47,,,,18,,,28*7F
$GPGSV,3,3,09,26,,,25*73
$GPGGA,214233.000,4000.6903,N,10514.6385,W,1,06,1.90,1618.8,M,-20.6,M,,*6B
$GPGSV,3,1,09,05,78,103,41,29,62,319,41,20,50,051,40,25,40,219,25*77
$GPGSV,3,2,09,11,27,065,37,12,26,187,27,47,,,,18,,,36*70
$GPGSV,3,3,09,26,,,25*73
$GPGGA,214234.000,4000.6909,N,10514.6385,W,1,06,1.90,1618.8,M,-20.6,M,,*66
$GPGSV,3,1,09,05,78,103,40,29,62,319,42,20,50,051,39,25,40,219,25*7B
$GPGSV,3,2,09,11,27,065,28,12,26,187,27,47,,,,18,,,26*7F
$GPGSV,3,3,09,26,,,24*72
$GPGGA,214235.000,4000.6914,N,10514.6386,W,1,06,1.90,1618.9,M,-20.6,M,,*69
$GPGSV,3,1,09,05,78,103,39,29,62,319,42,20,50,051,39,25,40,219,25*75
$GPGSV,3,2,09,11,27,065,30,12,26,187,28,47,,,,18,,,26*79
$GPGSV,3,3,09,26,,,32*75
$GPGGA,214236.000,4000.6920,N,10514.6387,W,1,06,1.90,1618.9,M,-20.6,M,,*6C
$GPGSV,3,1,09,05,78,103,39,29,62,319,41,20,50,051,39,25,40,219,24*77
$GPGSV,3,2,09,11,27,066,31,12,26,187,27,47,,,,18,,,33*70
$GPGSV,3,3,09,26,,,31*76
$GPGGA,214237.000,4000.6926,N,10514.6387,W,1,06,1.90,1618.9,M,-20.6,M,,*6B
$GPGSV,3,1,09,05,78,103,38,29,62,319,40,20,50,051,38,25,40,219,24*76
$GPGSV,3,2,09,11,27,066,32,12,26,187,26,47,,,,18,,,33*72
$GPGSV,3,3,09,26,,,29*7F
$GPGGA,214238.000,4000.6933,N,10514.6388,W,1,06,1.91,1618.9,M,-20.6,M,,*6E
$GPGSV,3,1,09,05,78,103,38,29,62,319,40,20,50,051,39,25,40,219,24*77
$GPGSV,3,2,09,11,27,066,32,12,26,187,25,49,,,,18,,,31*7D
$GPGSV,3,3,09,26,,,28*7E
$GPGGA,214239.000,4000.6939,N,10514.6388,W,1,06,1.91,1619.0,M,-20.6,M,,*6D
$GPGSV,3,1,09,05,78,103,38,29,62,319,40,20,50,051,39,25,40,219,24*77
$GPGSV,3,2,09,11,27,066,34,12,26,187,25,49,,,,18,,,29*72
$GPGSV,3,3,09,26,,,20*76
$GPGGA,214240.000,4000.6945,N,10514.6387,W,1,06,1.91,1619.0,M,-20.6,M,,*67
$GPGSV,3,1,09,05,78,103,39,29,62,319,40,20,50,051,38,25,40,219,25*76
$GPGSV,3,2,09,11,27,066,36,12,26,187,26,49,,,,18,,,28*72
$GPGSV,3,3,09,26,,,21*77
$GPGGA,214241.000,4000.6952,N,10514.6387,W,1,06,1.91,1619.1,M,-20.6,M,,*61
$GPGSV,3,1,09,05,78,103,39,29,62,319,39,20,50,051,39,25,40,219,26*7A
$GPGSV,3,2,09,11,27,066,37,12,26,187,26,49,,,,18,,,30*7A
$GPGSV,3,3,09,26,,,21*77
$GPGGA,214242.000,4000.6958,N,10514.6387,W,1,06,1.91,1619.0,M,-20.6,M,,*69
$GPGSV,3,1,09,05,78,103,39,29,62,319,40,20,50,051,32,25,40,219,26*7F
$GPGSV,3,2,09,11,27,066,38,12,26,187,25,49,,,,18,,,30*76
$GPGSV,3,3,09,26,,,28*7E
$GPGGA,214243.000,4000.6965,N,10514.6386,W,1,06,1.91,1618.9,M,-20.6,M,,*6F
$GPGSV,3,1,09,05,78,103,39,29,62,319,40,20,50,051,33,25,40,219,25*7D
$GPGSV,3,2,09,11,27,066,38,12,26,187,26,49,,,,18,,,29*7D
$GPGSV,3,3,09,26,,,27*71
$GPGGA,214244.000,4000.6971,N,10514.6385,W,1,06,1.91,1619.1,M,-20.6,M,,*67
$GPGSV,3,1,09,05,78,103,39,29,62,319,40,20,50,051,34,51,43,183,*7D
$GPGSV,3,2,09,25,40,219,26,11,27,066,23,12,26,187,26,18,,,30*4F
$GPGSV,3,3,09,26,,,23*75
$GPGGA,214245.000,4000.6975,N,10514.6384,W,1,06,1.91,1619.3,M,-20.6,M,,*61
$GPGSV,3,1,09,05,78,103,40,29,62,319,40,20,49,051,34,51,43,183,*7B
$GPGSV,3,2,09,25,40,219,26,11,27,066,32,12,26,187,24,18,,,30*4D
$GPGSV,3,3,09,26,,,24*72
$GPGGA,214246.000,4000.6979,N,10514.6385,W,1,06,1.91,1619.3,M,-20.6,M,,*6F
$GPGSV,3,1,09,05,78,103,40,29,62,319,41,20,49,051,35,51,43,183,*7B
$GPGSV,3,2,09,25,40,219,25,11,27,066,40,12,26,187,26,18,,,32*4B
$GPGSV,3,3,09,26,,,19*7C
$GPGGA,214247.000,4000.6983,N,10514.6384,W,1,06,1.91,1619.4,M,-20.6,M,,*6D
$GPGSV,3,1,09,05,78,103,40,29,62,319,42,20,49,051,35,51,43,183,*78
$GPGSV,3,2,09,25,40,219,25,11,27,066,38,12,26,187,27,18,,,33*44
$GPGSV,3,3,09,26,,,25*73
$GPGGA,214248.000,4000.6989,N,10514.6384,W,1,06,1.91,1619.4,M,-20.6,M,,*68
$GPGSV,3,1,09,05,78,103,39,29,62,319,43,20,49,051,37,51,43,183,*75
$GPGSV,3,2,09,25,40,219,25,11,27,066,27,12,26,187,27,18,,,25*4D
$GPGSV,3,3,09,26,,,24*72
$GPGGA,214249.000,4000.6995,N,10514.6384,W,1,06,1.91,1619.7,M,-20.6,M,,*67
$GPGSV,3,1,09,05,78,103,39,29,62,319,43,20,49,051,37,51,43,183,*75
$GPGSV,3,2,09,25,40,219,24,11,27,066,36,12,26,187,28,18,,,26*40
$GPGSV,3,3,09,26,,,19*7C
$GPGGA,214250.000,4000.7002,N,10514.6382,W,1,06,1.91,1619.7,M,-20.6,M,,*6F
$GPGSV,3,1,09,05,78,103,38,29,62,319,43,20,49,051,38,51,43,183,*7B
$GPGSV,3,2,09,25,40,219,25,11,27,066,38,12,26,187,28,18,,,27*4E
$GPGSV,3,3,09,26,,,24*72
$GPGGA,214251.000,4000.7008,N,10514.6380,W,1,06,1.91,1619.9,M,-20.6,M,,*68
$GPGSV,3,1,09,05,78,103,38,29,62,319,43,20,49,051,38,51,43,183,*7B
$GPGSV,3,2,09,25,40,219,26,11,27,066,40,12,26,187,27,18,,,28*42
$GPGSV,3,3,09,26,,,23*75
$GPGGA,214252.000,4000.7015,N,10514.6378,W,1,06,1.91,1620.1,M,-20.6,M,,*62
$GPGSV,3,1,09,05,78,103,38,29,62,319,43,20,49,051,37,51,43,183,*74
$GPGSV,3,2,09,25,40,219,27,11,27,066,41,12,26,187,28,18,,,28*4D
$GPGSV,3,3,09,26,,,24*72
$GPGGA,214253.000,4000.7022,N,10514.6376,W,1,06,1.91,1620.3,M,-20.6,M,,*6B
$GPGSV,3,1,09,05,78,103,39,29,62,319,42,20,49,051,30,51,43,183,*73
$GPGSV,3,2,09,25,40,219,27,11,27,066,41,12,26,187,28,18,,,29*4C
$GPGSV,3,3,09,26,,,24*72
$GPGGA,214254.000,4000.7028,N,10514.6375,W,1,06,1.91,1620.5,M,-20.6,M,,*63
$GPGSV,3,1,09,05,78,103,39,29,62,319,42,20,49,051,31,25,40,219,25*75
$GPGSV,3,2,09,48,35,219,,11,27,066,40,12,26,187,28,18,,,29*41
$GPGSV,3,3,09,26,,,24*72
$GPGGA,214255.000,4000.7034,N,10514.6373,W,1,06,1.92,1620.8,M,-20.6,M,,*67
$GPGSV,3,1,09,05,78,103,40,29,62,319,42,20,49,051,33,25,40,219,26*7A
$GPGSV,3,2,09,48,35,219,,11,27,066,39,12,26,187,28,18,,,29*4F
$GPGSV,3,3,09,26,,,24*72
$GPGGA,214256.000,4000.7040,N,10514.6373,W,1,06,1.92,1620.8,M,-20.6,M,,*67
$GPGSV,3,1,09,05,78,103,40,29,62,319,42,20,49,051,35,25,40,219,27*7D
$GPGSV,3,2,09,48,35,219,,11,27,066,37,12,26,187,27,18,,,27*40
$GPGSV,3,3,09,26,,,31*76
$GPGGA,214257.000,4000.7047,N,10514.6370,W,1,06,1.91,1620.8,M,-20.6,M,,*61
$GPGSV,3,1,09,05,78,103,40,29,62,319,42,20,49,051,35,25,40,219,27*7D
$GPGSV,3,2,09,48,35,219,,11,27,066,38,12,26,187,28,18,,,26*41
$GPGSV,3,3,09,26,,,29*7F
$GPGGA,214258.000,4000.7053,N,10514.6369,W,1,06,1.92,1621.1,M,-20.6,M,,*68
$GPGSV,3,1,09,05,78,103,40,29,62,319,34,20,49,051,36,25,40,219,24*7C
$GPGSV,3,2,09,48,35,219,,11,27,066,37,12,26,187,28,18,,,33*4A
$GPGSV,3,3,09,26,,,28*7E
$GPGGA,214259.000,4000.7058,N,10514.6368,W,1,06,1.92,1621.3,M,-20.6,M,,*61
$GPGSV,3,1,09,05,78,103,40,29,62,319,36,20,49,051,29,25,40,219,22*76
$GPGSV,3,2,09,48,35,219,,11,27,066,24,12,26,187,29,18,,,33*49
$GPGSV,3,3,09,26,,,26*70
$GPGGA,214300.000,4000.7064,N,10514.6371,W,1,06,1.92,1621.1,M,-20.6,M,,*69
$GPGSV,3,1,09,05,78,103,40,29,62,319,38,20,49,051,39,25,40,219,24*7F
$GPGSV,3,2,09,48,35,219,,11,27,066,24,12,26,187,29,18,,,33*49
$GPGSV,3,3,09,26,,,26*70
$GPGGA,214301.000,4000.7071,N,10514.6371,W,1,06,1.92,1621.0,M,-20.6,M,,*6D
$GPGSV,3,1,09,05,78,103,40,29,62,319,39,20,49,051,39,25,40,219,27*7D
$GPGSV,3,2,09,48,35,219,,11,27,066,24,12,26,187,28,18,,,31*4A
$GPGSV,3,3,09,26,,,28*7E
$GPGGA,214302.000,4000.7076,N,10514.6371,W,1,06,1.92,1621.0,M,-20.6,M,,*69
$GPGSV,3,1,09,05,78,103,40,29,62,319,39,20,49,051,37,25,40,219,26*72
$GPGSV,3,2,09,48,35,219,,11,27,066,26,12,26,187,27,18,,,29*4E
$GPGSV,3,3,09,26,,,29*7F
$GPGGA,214303.000,4000.7081,N,10514.6369,W,1,06,1.92,1621.1,M,-20.6,M,,*68
$GPGSV,3,1,09,05,78,103,39,29,62,319,39,20,49,051,37,25,40,219,23*79
$GPGSV,3,2,09,11,27,066,28,12,26,187,26,34,,,,18,,,30*7E
$GPGSV,3,3,09,26,,,29*7F
$GPGGA,214304.000,4000.7087,N,10514.6369,W,1,06,1.92,1621.2,M,-20.6,M,,*6A
$GPGSV,3,1,09,05,78,103,39,29,62,319,40,20,49,051,36,25,40,219,28*7D
$GPGSV,3,2,09,11,27,066,35,12,26,187,25,34,,,,18,,,29*79
$GPGSV,3,3,09,26,,,29*7F
$GPGGA,214305.000,4000.7092,N,10514.6370,W,1,06,1.92,1621.0,M,-20.6,M,,*65
$GPGSV,3,1,09,05,78,102,39,29,62,319,40,20,49,051,36,25,40,219,28*7C
$GPGSV,3,2,09,11,27,066,36,12,26,187,25,34,,,,18,,,30*72
$GPGSV,3,3,09,26,,,29*7F
$GPGGA,214306.000,4000.7094,N,10514.6370,W,1,06,1.92,1620.7,M,-20.6,M,,*66
$GPGSV,3,1,09,05,78,102,39,29,62,319,39,20,49,051,36,25,40,219,24*7E
$GPGSV,3,2,09,11,27,066,36,12,26,187,26,34,,,,18,,,30*71
$GPGSV,3,3,09,26,,,28*7E
$GPGGA,214307.000,4000.7099,N,10514.6369,W,1,06,1.92,1620.8,M,-20.6,M,,*6D
$GPGSV,3,1,09,05,78,102,40,29,62,319,39,20,49,051,34,25,40,219,18*7D
$GPGSV,3,2,09,11,27,066,34,12,26,187,25,34,,,,18,,,23*72
$GPGSV,3,3,09,26,,,21*77
$GPGGA,214308.000,4000.7105,N,10514.6368,W,1,06,1.92,1621.0,M,-20.6,M,,*6E
$GPGSV,3,1,09,05,78,102,40,29,62,319,40,20,49,051,32,25,40,219,32*7D
$GPGSV,3,2,09,11,27,066,35,12,26,187,24,34,,,,18,,,25*74
$GPGSV,3,3,09,26,,,22*74
$GPGGA,214309.000,4000.7110,N,10514.6369,W,1,06,1.92,1620.6,M,-20.6,M,,*6D
$GPGSV,3,1,09,05,78,102,40,29,62,319,40,20,49,051,41,25,40,219,28*72
$GPGSV,3,2,09,11,27,066,37,12,26,187,23,35,,,,18,,,32*76
$GPGSV,3,3,09,26,,,23*75
$GPGGA,214310.000,4000.7116,N,10514.6367,W,1,06,1.92,1620.7,M,-20.6,M,,*6C
$GPGSV,3,1,09,05,78,102,40,29,62,319,41,20,49,051,39,25,40,219,20*74
$GPGSV,3,2,09,11,27,066,38,12,26,187,25,35,,,,18,,,21*7D
$GPGSV,3,3,09,26,,,22*74
$GPGGA,214311.000,4000.7121,N,10514.6366,W,1,06,1.92,1620.7,M,-20.6,M,,*68
$GPGSV,3,1,09,05,78,102,39,29,62,319,40,20,49,051,37,25,40,219,20*75
$GPGSV,3,2,09,11,26,066,39,12,26,187,25,35,,,,18,,,22*7E
$GPGSV,3,3,09,26,,,24*72
$GPGGA,214312.000,4000.7129,N,10514.6366,W,1,06,1.92,1620.5,M,-20.6,M,,*61
$GPGSV,3,1,09,05,78,102,40,29,62,319,40,20,49,051,37,25,40,219,22*79
$GPGSV,3,2,09,11,26,066,40,12,26,187,25,35,,,,18,,,23*71
$GPGSV,3,3,09,26,,,22*74
$GPGGA,214313.000,4000.7135,N,10514.6365,W,1,06,1.93,1620.6,M,-20.6,M,,*6C
$GPGSV,3,1,09,05,78,102,40,29,62,319,41,20,49,051,35,25,40,219,22*7A
$GPGSV,3,2,09,11,26,066,40,12,26,187,25,35,,,,18,,,30*73
$GPGSV,3,3,09,26,,,34*73
$GPGGA,214314.000,4000.7143,N,10514.6362,W,1,06,1.93,1620.5,M,-20.6,M,,*6E
$GPGSV,3,1,09,05,78,102,40,29,62,319,40,20,49,051,36,25,40,219,21*7B
$GPGSV,3,2,09,11,26,066,41,12,26,187,24,35,,,,18,,,30*73
$GPGSV,3,3,09,26,,,32*75
$GPGGA,214315.000,4000.7148,N,10514.6360,W,1,06,1.93,1620.5,M,-20.6,M,,*66
$GPGSV,3,1,09,05,78,102,40,29,62,319,41,20,49,051,37,25,40,219,22*78
$GPGSV,3,2,09,11,26,066,41,12,26,187,23,35,,,,18,,,20*75
$GPGSV,3,3,09,26,,,31*76
$GPGGA,214316.000,4000.7154,N,10514.6357,W,1,06,1.93,1620.5,M,-20.6,M,,*6C
$GPGSV,3,1,09,05,78,102,40,29,62,319,42,20,49,051,35,25,40,219,23*78
$GPGSV,3,2,09,11,26,066,40,12,26,187,22,36,,,,18,,,21*77
$GPGSV,3,3,09,26,,,29*7F
$GPGGA,214317.000,4000.7160,N,10514.6356,W,1,06,1.93,1620.6,M,-20.6,M,,*68
$GPGSV,3,1,09,05,78,102,40,29,62,319,42,20,49,051,37,25,40,219,23*7A
$GPGSV,3,2,09,11,26,066,38,12,26,187,22,36,,,,18,,,28*71
$GPGSV,3,3,09,26,,,31*76
$GPGGA,214318.000,4000.7165,N,10514.6353,W,1,06,1.93,1620.9,M,-20.6,M,,*68
$GPGSV,3,1,09,05,78,102,40,29,62,319,43,20,49,051,38,25,40,219,24*73
$GPGSV,3,2,09,11,26,066,38,12,26,187,23,36,,,,18,,,28*70
$GPGSV,3,3,09,26,,,19*7C
$GPGGA,214319.000,4000.7172,N,10514.6353,W,1,07,1.19,1620.2,M,-20.6,M,,*67
$GPGSV,3,1,09,05,78,102,41,29,62,319,41,20,49,051,38,25,40,219,25*71
$GPGSV,3,2,09,11,26,066,38,12,26,187,24,18,24,270,29,36,,,*45
$GPGSV,3,3,09,26,,,21*77
$GPGGA,214320.000,4000.7175,N,10514.6350,W,1,07,1.19,1619.8,M,-20.6,M,,*69
$GPGSV,3,1,09,05,78,102,41,29,62,319,41,20,49,051,39,25,40,219,24*71
$GPGSV,3,2,09,11,26,066,36,12,26,187,23,18,24,270,21,36,,,*44
$GPGSV,3,3,09,26,,,23*75
$GPGGA,214321.000,4000.7180,N,10514.6349,W,1,07,1.17,1619.7,M,-20.6,M,,*6B
$GPGSV,3,1,09,05,78,102,41,29,62,319,41,20,49,051,37,25,40,219,24*7F
$GPGSV,3,2,09,11,26,066,36,12,26,187,22,18,24,270,20,36,,,*44
$GPGSV,3,3,09,26,,,25*73
$GPGGA,214322.000,4000.7186,N,10514.6349,W,1,07,1.19,1619.1,M,-20.6,M,,*66
$GPGSV,3,1,09,05,78,102,41,29,62,319,41,20,49,051,30,25,40,219,23*7F
$GPGSV,3,2,09,11,26,066,37,12,26,187,22,18,24,270,26,36,,,*43
$GPGSV,3,3,09,26,,,26*70
$GPGGA,214323.000,4000.7187,N,10514.6347,W,1,07,1.19,1618.8,M,-20.6,M,,*60
$GPGSV,3,1,09,05,78,102,41,29,62,319,40,20,49,051,44,25,40,219,22*7C
$GPGSV,3,2,09,11,26,066,30,12,26,187,22,18,24,270,24,38,,,*48
$GPGSV,3,3,09,26,,,26*70
$GPGGA,214324.000,4000.7191,N,10514.6346,W,1,07,1.17,1618.7,M,-20.6,M,,*60
$GPGSV,3,1,09,05,78,102,41,29,62,319,41,20,49,051,35,25,40,219,22*7B
$GPGSV,3,2,09,11,26,066,32,12,26,187,22,18,24,270,20,38,,,*4E
$GPGSV,3,3,09,26,,,26*70
$GPGGA,214325.000,4000.7196,N,10514.6347,W,1,07,1.19,1618.6,M,-20.6,M,,*68
$GPGSV,3,1,09,05,78,102,41,29,62,319,40,20,49,051,34,25,40,219,23*7A
$GPGSV,3,2,09,11,26,066,33,12,26,187,22,18,24,270,24,38,,,*4B
$GPGSV,3,3,09,26,,,25*73
$GPGGA,214326.000,4000.7202,N,10514.6346,W,1,07,1.19,1618.5,M,-20.6,M,,*67
$GPGSV,3,1,09,05,78,102,41,29,62,319,40,20,49,051,35,25,40,219,23*7B
$GPGSV,3,2,09,11,26,066,32,12,26,187,22,18,24,270,24,38,,,*4A
$GPGSV,3,3,09,26,,,25*73
$GPGGA,214327.000,4000.7206,N,10514.6345,W,1,07,1.19,1618.2,M,-20.6,M,,*66
$GPGSV,3,1,09,05,78,102,40,29,62,319,39,20,49,051,36,25,40,219,24*70
$GPGSV,3,2,09,11,26,066,34,12,26,187,23,18,24,270,25,38,,,*4C
$GPGSV,3,3,09,26,,,25*73
$GPGGA,214328.000,4000.7207,N,10514.6343,W,1,07,1.19,1617.9,M,-20.6,M,,*6A
$GPGSV,3,1,09,05,78,102,40,29,62,319,40,20,49,051,37,25,40,219,25*7E
$GPGSV,3,2,09,11,26,066,35,12,26,187,24,18,24,270,24,38,,,*4B
$GPGSV,3,3,09,26,,,26*70
$GPGGA,214329.000,4000.7211,N,10514.6342,W,1,07,1.17,1617.5,M,-20.6,M,,*6F
$GPGSV,3,1,09,05,78,102,41,29,62,319,40,20,49,051,37,25,40,219,24*7E
$GPGSV,3,2,09,11,26,066,36,12,26,187,24,18,24,270,24,41,,,*46
$GPGSV,3,3,09,26,,,26*70
$GPGGA,214330.000,4000.7215,N,10514.6341,W,1,07,1.17,1617.4,M,-20.6,M,,*61
$GPGSV,3,1,09,05,78,102,41,29,62,319,40,20,49,051,37,25,40,219,24*7E
$GPGSV,3,2,09,11,26,066,38,12,26,187,24,18,24,270,23,41,,,*4F
$GPGSV,3,3,09,26,,,34*73
$GPGGA,214331.000,4000.7219,N,10514.6341,W,1,07,1.17,1617.2,M,-20.6,M,,*6A
$GPGSV,3,1,09,05,78,102,41,29,62,319,38,20,49,051,37,25,40,219,24*71
$GPGSV,3,2,09,11,26,066,38,12,26,187,31,18,24,270,23,41,,,*4B
$GPGSV,3,3,09,26,,,33*74
$GPGGA,214332.000,4000.7226,N,10514.6339,W,1,07,1.17,1616.8,M,-20.6,M,,*61
$GPGSV,3,1,09,05,78,102,41,29,62,319,37,20,49,051,39,25,40,219,24*70
$GPGSV,3,2,09,11,26,066,37,12,26,187,32,18,24,270,23,41,,,*47
$GPGSV,3,3,09,26,,,32*75
$GPGGA,214333.000,4000.7229,N,10514.6336,W,1,07,1.17,1616.6,M,-20.6,M,,*6E
$GPGSV,3,1,09,05,78,102,41,29,62,319,37,20,49,051,38,25,40,219,23*76
$GPGSV,3,2,09,11,26,066,37,12,26,187,24,18,24,270,22,41,,,*41
$GPGSV,3,3,09,26,,,25*73
$GPGGA,214334.000,4000.7233,N,10514.6331,W,1,07,1.17,1616.4,M,-20.6,M,,*67
$GPGSV,3,1,09,05,78,102,41,29,62,319,38,20,49,051,27,25,40,219,23*77
$GPGSV,3,2,09,11,26,066,36,12,26,187,24,18,24,270,22,41,,,*40
$GPGSV,3,3,09,26,,,34*73
$GPGGA,214335.000,4000.7237,N,10514.6329,W,1,07,1.17,1616.3,M,-20.6,M,,*6C
$GPGSV,3,1,09,05,78,102,40,29,62,319,37,20,49,051,38,25,40,219,22*76
$GPGSV,3,2,09,11,26,066,37,12,26,187,23,18,24,270,23,43,,,*45
$GPGSV,3,3,09,26,,,34*73
$GPGGA,214336.000,4000.7241,N,10514.6326,W,1,07,1.17,1616.1,M,-20.6,M,,*63
$GPGSV,3,1,09,05,78,102,40,29,62,319,37,20,49,051,31,25,40,219,23*7E
$GPGSV,3,2,09,11,26,066,36,12,26,187,21,18,24,270,24,43,,,*41
$GPGSV,3,3,09,26,,,34*73
$GPGGA,214337.000,4000.7245,N,10514.6323,W,1,07,1.17,1615.9,M,-20.6,M,,*68
$GPGSV,3,1,09,05,78,102,40,29,62,319,36,20,49,051,24,25,40,219,23*7B
$GPGSV,3,2,09,11,26,066,35,12,26,187,21,18,24,270,24,43,,,*42
$GPGSV,3,3,09,26,,,25*73
$GPGGA,214338.000,4000.7250,N,10514.6321,W,1,07,1.17,1615.6,M,-20.6,M,,*6E
$GPGSV,3,1,09,05,78,102,40,29,62,319,34,20,49,051,26,25,40,219,23*7B
$GPGSV,3,2,09,11,26,066,35,12,26,187,21,18,24,270,23,43,,,*45
$GPGSV,3,3,09,26,,,25*73
$GPGGA,214339.000,4000.7256,N,10514.6319,W,1,07,1.17,1615.2,M,-20.6,M,,*66
$GPGSV,3,1,09,05,78,102,41,29,62,319,32,20,49,051,26,25,40,219,24*7B
$GPGSV,3,2,09,11,26,066,24,12,26,187,22,18,24,270,22,43,,,*47
$GPGSV,3,3,09,26,,,23*75
$GPGGA,214340.000,4000.7257,N,10514.6315,W,1,07,1.17,1614.9,M,-20.6,M,,*6F
$GPGSV,3,1,09,05,78,102,41,29,62,319,33,20,49,051,35,25,40,219,22*7E
$GPGSV,3,2,09,11,26,066,26,12,26,187,22,18,24,270,21,43,,,*46
$GPGSV,3,3,09,26,,,21*77
$GPGGA,214341.000,4000.7259,N,10514.6314,W,1,07,1.17,1614.5,M,-20.6,M,,*6D
$GPGSV,3,1,09,05,78,100,42,29,62,319,33,20,49,051,36,25,40,219,21*7F
$GPGSV,3,2,09,11,26,066,26,12,26,187,21,18,24,270,20,45,,,*42
$GPGSV,3,3,09,26,,,22*74
$GPGGA,214342.000,4000.7259,N,10514.6313,W,1,07,1.17,1614.3,M,-20.6,M,,*6F
$GPGSV,3,1,09,05,78,100,42,29,62,319,35,20,49,051,36,25,40,219,20*78
$GPGSV,3,2,09,11,26,066,40,12,26,187,20,18,24,270,20,45,,,*43
$GPGSV,3,3,09,26,,,24*72
$GPGGA,214343.000,4000.7265,N,10514.6311,W,1,07,1.17,1614.1,M,-20.6,M,,*61
$GPGSV,3,1,10,05,78,100,41,29,62,319,37,20,49,051,38,25,40,219,20*7F
$GPGSV,3,2,10,11,26,066,39,12,26,187,19,18,24,270,20,13,14,127,*7D
$GPGSV,3,3,10,45,,,,26,,,25*7A
$GPGGA,214344.000,4000.7270,N,10514.6308,W,1,07,1.17,1614.0,M,-20.6,M,,*6B
$GPGSV,3,1,10,05,78,100,41,29,62,319,37,20,49,051,39,25,40,219,19*74
$GPGSV,3,2,10,11,26,066,37,12,26,187,18,18,24,270,27,13,14,127,*75
$GPGSV,3,3,10,45,,,,26,,,32*7C
$GPGGA,214345.000,4000.7274,N,10514.6305,W,1,07,1.17,1613.8,M,-20.6,M,,*6C
$GPGSV,3,1,10,05,78,100,41,29,62,319,37,20,49,051,40,25,40,219,19*7A
$GPGSV,3,2,10,11,26,066,38,12,26,187,19,18,24,270,26,13,14,127,*7A
$GPGSV,3,3,10,45,,,,26,,,31*7F
$GPGGA,214346.000,4000.7282,N,10514.6303,W,1,07,1.17,1613.7,M,-20.6,M,,*6F
$GPGSV,3,1,10,05,78,100,41,29,62,319,38,20,49,051,40,25,40,219,20*7F
$GPGSV,3,2,10,11,26,066,37,12,26,187,20,18,24,270,26,13,14,127,*7F
$GPGSV,3,3,10,45,,,,26,,,32*7C
$GPGGA,214347.000,4000.7286,N,10514.6299,W,1,07,1.17,1613.6,M,-20.6,M,,*69
$GPGSV,3,1,10,05,78,100,41,29,62,319,39,20,49,051,41,25,40,219,20*7F
$GPGSV,3,2,10,11,26,066,30,12,26,187,21,18,24,270,26,13,14,127,*79
$GPGSV,3,3,10,46,,,,26,,,34*79
$GPGGA,214348.000,4000.7295,N,10514.6295,W,1,07,1.17,1613.5,M,-20.6,M,,*6B
$GPGSV,3,1,10,05,78,100,41,29,62,319,39,20,49,051,42,25,40,219,22*7E
$GPGSV,3,2,10,11,26,066,32,12,26,187,22,18,24,270,26,13,14,127,*78
$GPGSV,3,3,10,46,,,,26,,,34*79
$GPGGA,214349.000,4000.7301,N,10514.6292,W,1,08,0.96,1613.5,M,-20.6,M,,*66
$GPGSV,3,1,10,05,78,100,41,29,62,319,39,20,49,051,43,25,40,219,22*7F
$GPGSV,3,2,10,11,26,066,31,12,26,187,22,18,24,270,25,13,14,127,*78
$GPGSV,3,3,10,26,09,321,26,46,,,*43
$GPGGA,214350.000,4000.7306,N,10514.6287,W,1,08,0.96,1613.8,M,-20.6,M,,*60
$GPGSV,3,1,10,05,78,100,41,29,62,319,39,20,49,051,43,25,40,219,21*7C
$GPGSV,3,2,10,11,26,066,33,12,25,187,23,18,24,270,25,13,14,127,*78
$GPGSV,3,3,10,26,09,321,28,46,,,*4D
$GPGGA,214351.000,4000.7307,N,10514.6281,W,1,08,0.96,1614.1,M,-20.6,M,,*68
$GPGSV,3,1,10,05,78,100,40,29,62,319,38,20,49,051,43,25,40,219,20*7D
$GPGSV,3,2,10,11,26,066,35,12,25,187,23,18,24,270,24,13,14,127,*7F
$GPGSV,3,3,10,26,09,321,29,46,,,*4C
$GPGGA,214352.000,4000.7312,N,10514.6278,W,1,08,0.96,1614.0,M,-20.6,M,,*68
$GPGSV,3,1,10,05,78,100,41,29,62,319,38,20,49,051,42,25,40,219,21*7C
$GPGSV,3,2,10,11,26,066,36,12,25,187,22,18,24,270,24,13,14,127,*7D
$GPGSV,3,3,10,26,09,321,28,46,,,*4D
$GPGGA,214353.000,4000.7319,N,10514.6273,W,1,08,0.96,1613.9,M,-20.6,M,,*67
$GPGSV,3,1,10,05,78,100,41,29,62,319,38,20,49,051,42,25,40,219,20*7D
$GPGSV,3,2,10,11,26,066,34,12,25,187,24,18,24,270,24,13,14,127,*79
$GPGSV,3,3,10,26,09,321,26,46,,,*43
$GPGGA,214354.000,4000.7323,N,10514.6268,W,1,08,0.96,1614.1,M,-20.6,M,,*6C
$GPGSV,3,1,10,05,78,100,41,29,62,319,38,20,49,051,42,25,40,219,20*7D
$GPGSV,3,2,10,11,26,066,33,12,25,187,24,18,24,270,24,13,14,127,32*7F
$GPGSV,3,3,10,26,09,321,27,47,,,*43
$GPGGA,214355.000,4000.7329,N,10514.6263,W,1,08,0.96,1614.0,M,-20.6,M,,*6D
$GPGSV,3,1,10,05,78,100,41,29,62,319,38,20,49,051,41,25,40,219,20*7E
$GPGSV,3,2,10,11,26,066,32,12,25,187,24,18,24,270,24,13,14,127,32*7E
$GPGSV,3,3,10,26,09,321,26,47,,,*42
$GPGGA,214356.000,4000.7334,N,10514.6258,W,1,08,0.96,1613.8,M,-20.6,M,,*65
$GPGSV,3,1,10,05,78,100,41,29,62,319,37,20,49,051,42,25,40,219,20*72
$GPGSV,3,2,10,11,26,066,33,12,25,187,22,18,24,270,23,13,14,127,35*79
$GPGSV,3,3,10,26,09,321,25,47,,,*41
$GPGGA,214357.000,4000.7338,N,10514.6253,W,1,08,0.96,1613.8,M,-20.6,M,,*63
$GPGSV,3,1,10,05,78,100,41,29,62,319,37,20,49,051,42,25,40,219,20*72
$GPGSV,3,2,10,11,26,066,35,12,25,187,21,18,24,270,23,13,14,127,36*7F
$GPGSV,3,3,10,26,09,321,26,47,,,*42
$GPGGA,214358.000,4000.7343,N,10514.6248,W,1,08,0.96,1613.8,M,-20.6,M,,*6A
$GPGSV,3,1,10,05,78,100,42,29,62,319,38,20,49,051,41,25,40,219,19*77
$GPGSV,3,2,10,11,26,066,36,12,25,187,25,18,24,270,22,13,14,127,33*7C
$GPGSV,3,3,10,26,09,321,27,47,,,*43
$GPGGA,214359.000,4000.7349,N,10514.6242,W,1,08,0.96,1613.8,M,-20.6,M,,*6B
$GPGSV,3,1,10,05,78,100,42,29,62,319,38,20,49,051,41,25,40,219,19*77
$GPGSV,3,2,10,11,26,066,35,12,25,187,26,18,24,270,23,13,14,127,32*7C
$GPGSV,3,3,10,26,09,321,28,47,,,*4C
$GPGGA,214400.000,4000.7355,N,10514.6239,W,1,08,0.96,1613.6,M,-20.6,M,,*6F
$GPGSV,3,1,10,05,78,100,42,29,62,319,37,20,49,051,41,25,40,219,19*78
$GPGSV,3,2,10,11,26,066,33,12,25,187,23,18,24,270,25,13,14,127,33*78
$GPGSV,3,3,10,26,09,321,29,49,,,*43
$GPGGA,214401.000,4000.7360,N,10514.6234,W,1,08,0.96,1613.4,M,-20.6,M,,*67
$GPGSV,3,1,10,05,78,100,41,29,62,319,38,20,49,051,40,25,40,219,19*75
$GPGSV,3,2,10,11,26,066,35,12,25,187,22,18,24,270,25,13,14,127,33*7F
$GPGSV,3,3,10,26,09,321,30,49,,,*4B
$GPGGA,214402.000,4000.7364,N,10514.6231,W,1,08,0.96,1613.3,M,-20.6,M,,*62
$GPGSV,3,1,10,05,78,100,41,29,62,319,38,20,49,051,40,25,40,219,19*75
$GPGSV,3,2,10,11,26,066,36,12,25,187,22,18,24,270,26,13,14,127,32*7E
$GPGSV,3,3,10,26,09,321,30,49,,,*4B
$GPGGA,214403.000,4000.7368,N,10514.6228,W,1,08,0.96,1613.0,M,-20.6,M,,*64
$GPGSV,3,1,10,05,78,100,41,29,62,319,37,20,49,051,40,25,40,219,20*70
$GPGSV,3,2,10,11,26,066,35,12,25,187,21,18,24,270,25,13,14,127,31*7E
$GPGSV,3,3,10,26,09,321,22,49,,,*48
$GPGGA,214404.000,4000.7372,N,10514.6224,W,1,08,0.96,1612.8,M,-20.6,M,,*6D
$GPGSV,3,1,10,05,78,100,41,29,62,319,37,20,49,051,41,25,40,219,20*71
$GPGSV,3,2,10,11,26,066,35,12,25,187,20,18,24,270,25,13,14,127,31*7F
$GPGSV,3,3,10,26,09,321,24,49,,,*4E
$GPGGA,214405.000,4000.7376,N,10514.6223,W,1,08,0.96,1612.6,M,-20.6,M,,*61
$GPGSV,3,1,10,05,78,100,41,29,62,319,37,20,49,051,40,25,40,219,20*70
$GPGSV,3,2,10,11,26,066,36,12,25,187,19,18,24,270,24,13,14,127,31*77
$GPGSV,3,3,10,26,09,321,24,49,,,*4E
$GPGGA,214406.000,4000.7385,N,10514.6220,W,1,08,0.96,1612.5,M,-20.6,M,,*6E
$GPGSV,3,1,10,05,78,100,41,29,62,319,38,20,49,051,40,25,40,219,19*75
$GPGSV,3,2,10,11,26,066,37,12,25,187,19,18,24,270,24,13,14,127,31*76
$GPGSV,3,3,10,26,09,321,24,49,,,*4E
$GPGGA,214407.000,4000.7390,N,10514.6218,W,1,08,0.96,1612.3,M,-20.6,M,,*66
$GPGSV,3,1,10,05,78,100,41,29,63,319,37,20,49,051,38,25,40,219,21*7F
$GPGSV,3,2,10,11,26,066,30,12,25,187,19,18,24,270,24,13,14,127,31*71
$GPGSV,3,3,10,26,09,321,24,33,,,*43
$GPGGA,214408.000,4000.7397,N,10514.6216,W,1,08,0.96,1612.3,M,-20.6,M,,*60
$GPGSV,3,1,10,05,78,100,41,29,63,319,36,20,49,051,38,25,40,219,22*7D
$GPGSV,3,2,10,11,26,066,30,12,25,187,33,18,24,270,23,13,14,127,38*77
$GPGSV,3,3,10,26,09,321,24,33,,,*43
$GPGGA,214409.000,4000.7407,N,10514.6211,W,1,08,0.96,1612.2,M,-20.6,M,,*69
$GPGSV,3,1,10,05,78,100,41,29,63,319,36,20,49,051,39,25,40,219,22*7C
$GPGSV,3,2,10,11,26,066,31,12,25,187,32,18,24,270,22,13,14,127,37*79
$GPGSV,3,3,10,26,09,321,24,33,,,*43
$GPGGA,214410.000,4000.7415,N,10514.6205,W,1,08,0.96,1612.0,M,-20.6,M,,*65
$GPGSV,3,1,10,05,78,100,41,29,63,319,36,20,49,051,39,25,40,219,21*7F
$GPGSV,3,2,10,11,26,066,33,12,25,187,32,18,24,270,22,13,14,127,36*7A
$GPGSV,3,3,10,26,09,321,23,33,,,*44
$GPGGA,214411.000,4000.7422,N,10514.6201,W,1,08,0.96,1611.8,M,-20.6,M,,*6F
$GPGSV,3,1,10,05,78,100,41,29,63,319,34,20,49,051,39,25,40,219,22*7E
$GPGSV,3,2,10,11,26,066,33,12,25,187,32,18,24,270,21,13,14,127,36*79
$GPGSV,3,3,10,26,09,321,22,33,,,*45
$GPGGA,214412.000,4000.7429,N,10514.6197,W,1,08,0.96,1611.5,M,-20.6,M,,*66
$GPGSV,3,1,10,05,78,100,41,29,63,319,34,20,49,051,39,25,40,219,22*7E
$GPGSV,3,2,10,11,26,066,32,12,25,187,31,18,24,270,22,13,14,127,36*78
$GPGSV,3,3,10,26,09,321,24,33,,,*43
$GPGGA,214413.000,4000.7432,N,10514.6190,W,1,08,0.96,1611.3,M,-20.6,M,,*6C
$GPGSV,3,1,10,05,78,100,41,29,63,319,34,20,49,051,40,25,40,219,22*70
$GPGSV,3,2,10,11,26,066,32,12,25,187,30,18,24,270,22,13,14,127,36*79
$GPGSV,3,3,10,26,09,321,32,50,,,*41
$GPGGA,214414.000,4000.7438,N,10514.6184,W,1,08,0.96,1611.1,M,-20.6,M,,*66
$GPGSV,3,1,10,05,78,100,41,29,63,319,35,20,49,051,38,25,40,219,21*7D
$GPGSV,3,2,10,11,26,066,32,12,25,187,29,18,24,270,22,13,14,127,37*70
$GPGSV,3,3,10,26,09,321,30,50,,,*43
$GPGGA,214415.000,4000.7442,N,10514.6179,W,1,08,0.96,1610.8,M,-20.6,M,,*60
$GPGSV,3,1,10,05,78,100,41,29,63,319,34,20,49,051,38,25,40,219,22*7F
$GPGSV,3,2,10,11,26,066,39,12,25,187,28,18,24,270,22,13,14,127,37*7A
$GPGSV,3,3,10,26,09,321,29,50,,,*4B
$GPGGA,214416.000,4000.7447,N,10514.6175,W,1,08,0.96,1610.6,M,-20.6,M,,*64
$GPGSV,3,1,10,05,78,100,42,29,63,319,35,20,49,051,38,25,40,219,21*7E
$GPGSV,3,2,10,11,26,066,31,12,25,187,28,18,24,270,22,13,14,127,36*73
$GPGSV,3,3,10,26,09,321,30,50,,,*43
$GPGGA,214417.000,4000.7456,N,10514.6168,W,1,08,0.96,1610.5,M,-20.6,M,,*6A
$GPGSV,3,1,10,05,78,100,42,29,63,319,36,20,49,051,37,25,40,219,21*72
$GPGSV,3,2,10,11,26,066,31,12,25,187,30,18,24,270,23,13,14,127,36*7B
$GPGSV,3,3,10,26,09,321,32,50,,,*41
$GPGGA,214418.000,4000.7463,N,10514.6163,W,1,08,0.96,1610.4,M,-20.6,M,,*69
$GPGSV,3,1,10,05,78,100,42,29,63,319,35,20,49,051,38,25,40,219,21*7E
$GPGSV,3,2,10,11,26,066,31,12,25,187,32,18,24,270,24,13,14,127,34*7C
$GPGSV,3,3,10,26,09,321,32,50,,,*41
$GPGGA,214419.000,4000.7472,N,10514.6157,W,1,08,0.96,1610.4,M,-20.6,M,,*6F
$GPGSV,3,1,10,05,78,099,34,29,63,319,37,20,49,051,30,25,40,219,39*7D
$GPGSV,3,2,10,11,26,066,23,12,25,187,39,18,24,270,24,13,14,127,25*74
$GPGSV,3,3,10,26,09,321,32,50,,,*41
$GPGGA,214420.000,4000.7478,N,10514.6151,W,1,08,0.96,1610.2,M,-20.6,M,,*6F
$GPGSV,3,1,10,05,78,099,42,29,63,319,37,20,49,051,41,25,40,219,24*76
$GPGSV,3,2,10,11,26,066,33,12,25,187,28,18,24,270,24,13,14,127,35*74
$GPGSV,3,3,10,26,09,321,33,42,,,*43
$GPGGA,214421.000,4000.7483,N,10514.6145,W,1,08,0.96,1610.1,M,-20.6,M,,*6C
$GPGSV,3,1,10,05,78,099,42,29,63,319,36,20,49,051,34,25,40,219,24*75
$GPGSV,3,2,10,11,26,066,34,12,25,187,27,18,24,270,24,13,14,127,33*7A
$GPGSV,3,3,10,26,09,321,32,42,,,*42
$GPGGA,214422.000,4000.7487,N,10514.6141,W,1,08,0.96,1610.0,M,-20.6,M,,*6E
$GPGSV,3,1,10,05,78,099,42,29,63,319,37,20,49,051,43,25,40,219,24*74
$GPGSV,3,2,10,11,26,066,35,12,25,187,26,18,24,270,25,13,14,127,32*7A
$GPGSV,3,3,10,26,09,321,31,42,,,*41
$GPGGA,214423.000,4000.7491,N,10514.6137,W,1,08,0.96,1609.9,M,-20.6,M,,*68
$GPGSV,3,1,10,05,78,099,42,29,63,319,38,20,49,051,42,25,40,219,24*7A
$GPGSV,3,2,10,11,26,066,36,12,25,187,25,18,24,270,25,13,14,127,30*78
$GPGSV,3,3,10,26,09,321,30,42,,,*40
$GPGGA,214424.000,4000.7495,N,10514.6133,W,1,08,0.96,1609.7,M,-20.6,M,,*61
$GPGSV,3,1,10,05,78,099,42,29,63,319,39,20,49,051,41,25,40,219,23*7F
$GPGSV,3,2,10,11,26,066,37,12,25,187,25,18,24,270,25,13,14,127,31*78
$GPGSV,3,3,10,26,09,321,28,42,,,*49
$GPGGA,214425.000,4000.7500,N,10514.6128,W,1,08,0.96,1609.6,M,-20.6,M,,*66
$GPGSV,3,1,10,05,78,099,42,29,63,319,38,20,49,051,40,25,40,219,23*7F
$GPGSV,3,2,10,11,26,066,38,12,25,187,24,18,24,270,27,13,14,127,31*74
$GPGSV,3,3,10,26,09,321,27,42,,,*46
$GPGGA,214426.000,4000.7505,N,10514.6122,W,1,08,0.96,1609.5,M,-20.6,M,,*69
$GPGSV,3,1,10,05,78,099,42,29,63,319,38,20,49,051,41,25,40,219,23*7E
$GPGSV,3,2,10,11,26,066,37,12,25,187,23,18,24,270,29,13,14,127,29*7B
$GPGSV,3,3,10,26,09,321,28,37,,,*4B
$GPGGA,214427.000,4000.7509,N,10514.6117,W,1,08,0.96,1609.4,M,-20.6,M,,*63
$GPGSV,3,1,10,05,78,099,42,29,63,319,38,20,49,051,41,25,40,219,22*7F
$GPGSV,3,2,10,11,26,066,27,12,25,187,25,18,24,270,29,13,14,127,28*7D
$GPGSV,3,3,10,26,09,321,27,37,,,*44
$GPGGA,214428.000,4000.7517,N,10514.6112,W,1,08,0.96,1609.4,M,-20.6,M,,*66
$GPGSV,3,1,10,05,78,099,42,29,63,319,37,20,49,051,34,25,40,219,23*73
$GPGSV,3,2,10,11,26,066,27,12,25,187,34,18,24,270,21,13,14,127,27*7A
$GPGSV,3,3,10,26,09,321,26,37,,,*45
$GPGGA,214429.000,4000.7523,N,10514.6105,W,1,08,0.96,1609.3,M,-20.6,M,,*61
$GPGSV,3,1,10,05,78,099,42,29,63,319,30,20,49,051,32,25,40,219,24*75
$GPGSV,3,2,10,11,26,066,28,12,25,187,35,18,24,270,21,13,14,127,20*73
$GPGSV,3,3,10,26,09,321,26,37,,,*45
$GPGGA,214430.000,4000.7529,N,10514.6099,W,1,08,0.96,1609.3,M,-20.6,M,,*67
$GPGSV,3,1,10,05,78,099,42,29,63,319,30,20,49,051,40,25,40,219,24*70
$GPGSV,3,2,10,11,26,066,35,12,25,187,35,18,24,270,21,13,14,127,27*78
$GPGSV,3,3,10,26,09,321,28,37,,,*4B
$GPGGA,214431.000,4000.7534,N,10514.6094,W,1,08,0.96,1609.2,M,-20.6,M,,*66
$GPGSV,3,1,10,05,78,099,41,29,63,319,29,20,49,051,33,25,40,219,24*7F
$GPGSV,3,2,10,11,26,066,35,12,25,187,35,18,24,270,21,13,14,127,27*78
$GPGSV,3,3,10,26,09,321,29,37,,,*4A
$GPGGA,214432.000,4000.7538,N,10514.6087,W,1,08,0.96,1609.2,M,-20.6,M,,*6B
$GPGSV,3,1,10,05,78,099,41,29,63,319,30,20,49,051,34,25,40,219,24*70
$GPGSV,3,2,10,11,26,066,34,12,25,187,35,18,24,271,21,13,14,127,29*76
$GPGSV,3,3,10,26,09,321,36,39,,,*4A
$GPGGA,214433.000,4000.7542,N,10514.6080,W,1,08,0.96,1609.2,M,-20.6,M,,*60
$GPGSV,3,1,10,05,78,099,41,29,63,319,31,20,49,051,34,25,40,219,23*76
$GPGSV,3,2,10,11,26,066,35,12,25,187,35,18,24,271,21,13,14,127,31*7E
$GPGSV,3,3,10,26,09,321,37,39,,,*4B
$GPGGA,214434.000,4000.7545,N,10514.6072,W,1,08,0.96,1609.2,M,-20.6,M,,*6D
$GPGSV,3,1,10,05,78,099,41,29,63,319,33,20,49,051,44,25,40,219,23*73
$GPGSV,3,2,10,11,26,066,34,12,25,187,33,18,24,271,21,13,14,127,31*79
$GPGSV,3,3,10,26,09,321,37,39,,,*4B
$GPGGA,214435.000,4000.7547,N,10514.6064,W,1,08,0.96,1609.2,M,-20.6,M,,*69
$GPGSV,3,1,10,05,78,099,41,29,63,319,34,20,49,051,35,25,40,219,23*72
$GPGSV,3,2,10,11,26,066,34,12,25,187,31,18,24,271,21,13,14,127,29*72
$GPGSV,3,3,10,26,09,321,37,39,,,*4B
$GPGGA,214436.000,4000.7549,N,10514.6057,W,1,08,0.96,1609.3,M,-20.6,M,,*65
$GPGSV,3,1,10,05,78,099,41,29,63,319,34,20,49,051,36,25,40,219,23*71
$GPGSV,3,2,10,11,26,066,35,12,25,187,29,18,24,271,21,13,14,127,28*7B
$GPGSV,3,3,10,26,09,321,37,39,,,*4B
$GPGGA,214437.000,4000.7552,N,10514.6049,W,1,08,0.96,1609.3,M,-20.6,M,,*61
$GPGSV,3,1,10,05,78,099,39,29,63,319,33,20,49,051,37,25,40,219,23*78
$GPGSV,3,2,10,11,26,066,27,12,25,187,29,18,24,271,21,13,14,127,27*77
$GPGSV,3,3,10,26,09,321,36,39,,,*4A
$GPGGA,214438.000,4000.7555,N,10514.6040,W,1,08,0.96,1609.3,M,-20.6,M,,*60
$GPGSV,3,1,10,05,78,099,39,29,63,319,34,20,49,051,36,25,40,219,24*79
$GPGSV,3,2,10,11,26,066,28,12,25,187,30,18,24,271,21,13,14,127,28*7F
$GPGSV,3,3,10,26,09,321,29,39,,,*44
$GPGGA,214439.000,4000.7558,N,10514.6034,W,1,08,0.96,1609.3,M,-20.6,M,,*6F
$GPGSV,3,1,10,05,78,099,40,29,63,319,33,20,49,051,36,25,39,218,24*7F
$GPGSV,3,2,10,11,26,066,28,12,25,187,23,18,24,271,21,13,14,127,26*73
$GPGSV,3,3,10,26,09,321,29,40,,,*4A
$GPGGA,214440.000,4000.7563,N,10514.6027,W,1,08,0.96,1609.3,M,-20.6,M,,*6B
$GPGSV,3,1,10,05,78,099,40,29,63,319,34,20,49,051,37,25,39,218,24*79
$GPGSV,3,2,10,11,26,066,28,12,25,187,33,18,24,271,20,13,14,127,26*73
$GPGSV,3,3,10,26,09,321,31,40,,,*43
$GPGGA,214441.000,4000.7566,N,10514.6020,W,1,08,0.96,1609.2,M,-20.6,M,,*69
$GPGSV,3,1,10,05,78,099,41,29,63,319,36,20,49,051,37,25,39,218,23*7D
$GPGSV,3,2,10,11,26,066,39,12,25,187,32,18,24,271,19,13,14,127,26*78
$GPGSV,3,3,10,26,09,321,32,40,,,*40
$GPGGA,214442.000,4000.7571,N,10514.6014,W,1,08,0.96,1609.1,M,-20.6,M,,*68
$GPGSV,3,1,10,05,78,099,41,29,63,319,37,20,49,051,38,25,39,218,22*72
$GPGSV,3,2,10,11,26,066,39,12,25,187,24,18,24,271,19,13,14,127,27*7E
$GPGSV,3,3,10,26,09,321,33,40,,,*41
$GPGGA,214443.000,4000.7577,N,10514.6008,W,1,08,0.96,1609.2,M,-20.6,M,,*61
$GPGSV,3,1,11,05,78,099,40,29,63,319,37,20,49,051,39,25,39,218,21*70
$GPGSV,3,2,11,11,26,066,39,12,25,187,23,18,24,271,19,15,15,161,*78
$GPGSV,3,3,11,13,14,127,29,26,09,321,34,40,,,*7F
$GPGGA,214444.000,4000.7583,N,10514.6002,W,1,08,0.96,1609.2,M,-20.6,M,,*67
$GPGSV,3,1,11,05,78,099,40,29,63,319,37,20,49,051,40,25,39,218,21*7E
$GPGSV,3,2,11,11,26,066,32,12,25,187,24,18,24,271,19,15,15,161,*74
$GPGSV,3,3,11,13,14,127,29,26,09,321,34,40,,,*7F
$GPGGA,214445.000,4000.7589,N,10514.5998,W,1,08,0.96,1609.3,M,-20.6,M,,*64
$GPGSV,3,1,11,05,78,099,40,29,63,319,37,20,49,051,41,25,39,218,21*7F
$GPGSV,3,2,11,11,26,066,24,12,25,187,23,18,24,271,19,15,15,161,*74
$GPGSV,3,3,11,13,14,127,29,26,09,321,33,44,,,*7C
$GPGGA,214446.000,4000.7595,N,10514.5994,W,1,08,0.96,1609.3,M,-20.6,M,,*66
$GPGSV,3,1,11,05,78,099,40,29,63,319,38,20,49,051,41,25,39,218,21*70
$GPGSV,3,2,11,11,26,066,34,12,25,187,24,18,24,271,20,15,15,161,*78
$GPGSV,3,3,11,13,14,127,29,26,09,321,33,44,,,*7C
$GPGGA,214447.000,4000.7601,N,10514.5991,W,1,08,0.95,1609.3,M,-20.6,M,,*6F
$GPGSV,3,1,11,05,78,099,40,29,63,319,38,20,49,051,40,25,39,218,22*72
$GPGSV,3,2,11,11,26,066,35,12,25,187,24,18,24,271,21,15,15,161,*78
$GPGSV,3,3,11,13,14,127,30,26,09,321,32,44,,,*75
$GPGGA,214448.000,4000.7607,N,10514.5988,W,1,08,0.96,1609.4,M,-20.6,M,,*6A
$GPGSV,3,1,11,05,78,099,40,29,63,319,38,20,49,051,40,25,39,218,22*72
$GPGSV,3,2,11,11,26,066,36,12,25,187,24,18,24,271,22,15,15,161,*78
$GPGSV,3,3,11,13,14,127,31,26,09,321,32,44,,,*74
$GPGGA,214449.000,4000.7615,N,10514.5984,W,1,08,0.96,1609.4,M,-20.6,M,,*64
$GPGSV,3,1,11,05,78,099,41,29,63,319,39,20,49,051,39,25,39,218,23*7D
$GPGSV,3,2,11,11,26,066,37,12,25,187,23,18,24,271,22,15,15,161,*7E
$GPGSV,3,3,11,13,14,127,31,26,09,321,33,44,,,*75
$GPGGA,214450.000,4000.7623,N,10514.5979,W,1,08,0.96,1609.6,M,-20.6,M,,*69
$GPGSV,3,1,11,05,78,099,41,29,63,319,40,20,49,051,38,25,39,218,23*72
$GPGSV,3,2,11,11,26,066,39,12,25,187,24,18,24,271,31,15,15,161,*75
$GPGSV,3,3,11,13,14,127,32,26,09,321,31,44,,,*74
$GPGGA,214451.000,4000.7627,N,10514.5975,W,1,08,0.98,1609.9,M,-20.6,M,,*61
$GPGSV,3,1,11,05,78,099,41,29,63,319,39,20,49,051,37,25,39,218,22*72
$GPGSV,3,2,11,11,26,066,39,12,25,187,24,18,24,271,20,15,15,161,*75
$GPGSV,3,3,11,13,14,127,33,26,09,321,31,44,,,*75
$GPGGA,214452.000,4000.7631,N,10514.5970,W,1,08,0.98,1610.4,M,-20.6,M,,*65
$GPGSV,3,1,11,05,78,099,40,29,63,319,39,20,49,051,39,51,43,183,*72
$GPGSV,3,2,11,25,39,218,22,11,26,066,30,12,25,187,23,18,24,271,20*7B
$GPGSV,3,3,11,15,15,161,,13,14,127,34,26,09,321,31*44
$GPGGA,214453.000,4000.7636,N,10514.5968,W,1,08,0.95,1610.4,M,-20.6,M,,*67
$GPGSV,3,1,11,05,78,099,39,29,63,319,38,20,49,051,40,51,43,183,*73
$GPGSV,3,2,11,25,39,218,21,11,26,066,39,12,25,187,22,18,24,271,20*70
$GPGSV,3,3,11,15,15,161,,13,14,127,34,26,09,321,31*44
$GPGGA,214454.000,4000.7640,N,10514.5966,W,1,08,0.96,1610.8,M,-20.6,M,,*60
$GPGSV,3,1,11,05,78,099,39,29,63,319,39,20,49,051,40,51,43,183,*72
$GPGSV,3,2,11,25,39,218,22,11,26,066,40,12,25,187,23,18,24,271,22*7E
$GPGSV,3,3,11,15,15,161,,13,14,127,34,26,09,321,31*44
$GPGGA,214455.000,4000.7646,N,10514.5963,W,1,09,0.85,1611.2,M,-20.6,M,,*6A
$GPGSV,3,1,11,05,78,097,39,29,63,319,38,20,49,051,33,51,43,183,*79
$GPGSV,3,2,11,25,39,218,21,11,26,066,40,12,25,187,22,18,24,271,30*7F
$GPGSV,3,3,11,15,15,161,,13,14,127,32,26,09,321,24*46
$GPGGA,214456.000,4000.7653,N,10514.5962,W,1,09,0.85,1611.4,M,-20.6,M,,*6A
$GPGSV,3,1,11,05,78,097,38,29,63,319,29,20,49,051,40,51,43,183,*7C
$GPGSV,3,2,11,25,39,218,20,11,26,066,39,12,25,187,22,18,24,271,31*71
$GPGSV,3,3,11,15,15,161,,13,14,127,25,26,09,321,25*41
$GPGGA,214457.000,4000.7660,N,10514.5963,W,1,09,0.85,1611.7,M,-20.6,M,,*69
$GPGSV,3,1,11,05,78,097,38,29,63,319,31,20,49,051,39,51,43,183,*7B
$GPGSV,3,2,11,25,39,218,20,11,26,066,38,12,25,187,21,18,24,271,31*73
$GPGSV,3,3,11,15,15,161,,13,14,127,24,26,09,321,23*46
$GPGGA,214458.000,4000.7667,N,10514.5964,W,1,09,0.85,1612.1,M,-20.6,M,,*63
$GPGSV,3,1,11,05,78,097,37,29,63,319,38,20,49,051,40,51,43,183,*73
$GPGSV,3,2,11,25,39,218,19,11,26,066,39,12,25,187,22,18,24,271,33*79
$GPGSV,3,3,11,15,15,161,,13,14,127,25,26,09,321,30*45
$GPGGA,214459.000,4000.7673,N,10514.5964,W,1,09,0.85,1612.4,M,-20.6,M,,*62
$GPGSV,3,1,11,05,78,097,37,29,63,319,38,20,49,051,26,51,43,183,*73
$GPGSV,3,2,11,25,39,218,31,11,26,066,29,12,25,187,35,18,24,271,32*75
$GPGSV,3,3,11,15,15,161,,13,14,127,33,26,09,321,31*43
$GPGGA,214500.000,4000.7681,N,10514.5968,W,1,09,0.85,1613.0,M,-20.6,M,,*6B
$GPGSV,3,1,11,05,78,097,38,29,63,319,38,20,49,051,39,51,43,183,*72
